[
  {
    "id": 0,
    "name": "Salvos",
    "address": "69 Bourke Street Melbourne ",
    "opentime": "Mon - Fri 10am-6pm\nSat 10am-4pm\nSun Closed\n",
    "lat": -37.8120806,
    "lng": 144.9714159
  },
  {
    "id": 1,
    "name": "Brotherhood City Basement",
    "address": "Basement, Royal Arcade,Bourke Street Mall, Melbourne",
    "opentime": "Mon - Fri 9am to 4:45pm\nSat 9:30am to 3:30pm\n",
    "lat": -37.8145386,
    "lng": 144.96409369999998
  },
  {
    "id": 2,
    "name": "hunter gatherer City Ground Floor",
    "address": "Ground Floor, Royal Arcade, Melbourne",
    "opentime": "Mon - Fri 10 am to 5.15 pm\nSat 10 am to 4:45 pm\n",
    "lat": -37.814711700000004,
    "lng": 144.9640835
  },
  {
    "id": 3,
    "name": "The Conscious Closet",
    "address": "Queen Victoria Women's Centre, Ground Floor 210 Lonsdale Street, Melbourne",
    "opentime": "Tue - Sat 12 - 5PM\n",
    "lat": -37.810964,
    "lng": 144.965903
  },
  {
    "id": 4,
    "name": "Savers Footscray",
    "address": "33 Albert St, Footscray",
    "opentime": "Mon - Wed 9am - 8pm\nThu - Fri 9am - 9pm\nSat 9am - 7pm\nSun 10am - 6pm\n",
    "lat": -37.801720700000004,
    "lng": 144.8980249
  },
  {
    "id": 5,
    "name": "Community Link-Up Opportunity Shop - Footscray North",
    "address": "11 May Street, Footscray North VIC",
    "opentime": "Thu 10-1pm\nSat closed\n",
    "lat": -37.7886593,
    "lng": 144.8846525
  },
  {
    "id": 6,
    "name": "Footscray Salvos",
    "address": "199 Barkly Street , Footscray VIC 3011",
    "opentime": "Mon - Fri 9.00-5.30\nSat 9.00-5.00\n",
    "lat": -37.799682000000004,
    "lng": 144.897569},
  {
    "id": 7,
    "name": "Opportunity Shop - West Footscray",
    "address": "557 Barkly St, West Footscray VIC",
    "opentime": "Unknown\n",
    "lat": -37.797475299999995,
    "lng": 144.8771591},
  {
    "id": 8,
    "name": "Lighthouse West Footscray",
    "address": "79 sunshine road west footscray",
    "opentime": "Mon - Sat 9am to 4.30\n",
    "lat": -37.800945,
    "lng": 144.86901509999998},
  {
    "id": 9,
    "name": "Green Collective - Yarraville",
    "address": "71 Anderson Street, Yarraville, Victoria 3013",
    "opentime": "Mon-Fri 9.30am - 5pm\nSat 10am - 4pm\n",
    "lat": -37.8165925,
    "lng": 144.88895019999998},
  {
    "id": 10,
    "name": "Yarraville Bargain Centre",
    "address": "9 Anderson Street, Yarraville",
    "opentime": "Mon - Sat 9am-5pm\nSun 10am-4pm\n",
    "lat": -37.8168876,
    "lng": 144.89179719999998},
  {
    "id": 11,
    "name": "Missionpoint Pilgrim Op Shop",
    "address": "154 Somerville Road, Yarraville",
    "opentime": "Wed - Fri 9.30am-3.30pm\nSat 10.00am-2.00pm\n",
    "lat": -37.812776,
    "lng": 144.884453},
  {
    "id": 12,
    "name": "Vinnies Newport",
    "address": "3-5 Mason Street, Newport VIC 3015",
    "opentime": "Mon - Fri 9:00 AM - 5:00 PM\nSat 9:30 AM - 4:00 PM\nSun 10:00 AM - 4:00 PM\n",
    "lat": -37.8431669,
    "lng": 144.8825558},
  {
    "id": 13,
    "name": "Orthodox Christian Mission Sisterhood of St John The Eleimon",
    "address": "612-614 Melbourne Rd, Spotswood, Victoria",
    "opentime": "Mon - Fri 10.00am - 5.30pm\nSat 9.00am- 4.00pm\nSun closed\n",
    "lat": -37.8296237,
    "lng": 144.88160530000002},
  {
    "id": 14,
    "name": "St Andrews (church op shop) - Williamstown",
    "address": "89 Cecil Street, Williamstown VIC",
    "opentime": "Mon - Wed Closed\nThu 10-2\nFri Closed\nSat Check\nSun Closed\n",
    "lat": -37.86513970000001,
    "lng": 144.90312749999998},
  {
    "id": 15,
    "name": "Williamstown Hospital Opportunity Shop",
    "address": "47 Ferguson Street, Williamstown, 3016",
    "opentime": "Mon - Fri 9am - 4pm\n",
    "lat": -37.859274600000006,
    "lng": 144.899449},
  {
    "id": 16,
    "name": "Williamstown Uniting Church Opportunity Shop - Williamstown",
    "address": "Stevedore St, Williamstown VIC",
    "opentime": "Mon - Fri 10a - 4p\nSat 9:30a - 12:00\n",
    "lat": -37.8568995,
    "lng": 144.8976125},
  {
    "id": 17,
    "name": "Williamstown Salvos",
    "address": "Units 1 & 2, 308 Kororoit Creek Road, Williamstown VIC 3016",
    "opentime": "Mon - Fri 9.00-5.30\nSat 9.00-5.00\n",
    "lat": -37.855115999999995,
    "lng": 144.865308},
  {
    "id": 18,
    "name": "Vanoshy",
    "address": "80 Pier street altona",
    "opentime": "Mon - Sun 9am to 6pm\n",
    "lat": -37.8679417,
    "lng": 144.8308226},
  {
    "id": 19,
    "name": "Braybrook Salvos",
    "address": "296 Ballarat Road, Braybrook VIC 3019",
    "opentime": "Mon - Fri 9.00-5.30\nSat 9.00-5.00\n",
    "lat": -37.7792639,
    "lng": 144.8537689},
  {
    "id": 20,
    "name": "Helping Hands Sunshine Op Shop",
    "address": "85 Hampshire Road Sunshine",
    "opentime": "Mon - Fri 10am - 4pm\nSat 10am - 2pm\n",
    "lat": -37.789988,
    "lng": 144.8312306},
  {
    "id": 21,
    "name": "Vinnies Sunshine",
    "address": "56 Station Place, Sunshine VIC 3020",
    "opentime": "Mon - Fri 9:00 AM - 5:00 PM\nSat 9:00 AM - 3:00 PM\nSun Closed\n",
    "lat": -37.787183899999995,
    "lng": 144.8333217},
  {
    "id": 22,
    "name": "Wayside Bargain Centre - Sunshine",
    "address": "30 Withers, Sunshine VIC",
    "opentime": "Unknown\n",
    "lat": -37.785473700000004,
    "lng": 144.8341594},
  {
    "id": 23,
    "name": "Goss'n Shop",
    "address": "100 Anderson Rd Sunshine",
    "opentime": "Mon - Sat Closed\n",
    "lat": -37.786324,
    "lng": 144.8274345},
  {
    "id": 24,
    "name": "Sunshine Salvos",
    "address": "26 Withers Street, Sunshine VIC 3020",
    "opentime": "Mon - Fri 9.30.5.30\nSat 9.00-5.00\n",
    "lat": -37.78593729999999,
    "lng": 144.83432340000002},
  {
    "id": 25,
    "name": "Sunshine Hospital Opportunity Shop",
    "address": "176 Furlong Road, St Albans ",
    "opentime": "Mon - Fri 9:30am - 4:30pm\nSat 10am - 4pm\nSun 11am - 4pm\n",
    "lat": -37.75927539999999,
    "lng": 144.8171896},
  {
    "id": 26,
    "name": "Vinnies St Albans",
    "address": "71 Main Road West, St Albans VIC 3021",
    "opentime": "Mon - Fri 9:00 AM - 4:00 PM\nSat 10:00 AM - 3.00pm\n",
    "lat": -37.7442409,
    "lng": 144.7977113},
  {
    "id": 27,
    "name": "Brotherhood Deer Park",
    "address": "Shop 1, 112-116  Westwood Dr, Deer Park VIC",
    "opentime": "Mon - Fri 9.30 am to 5 pm\nSat 10 am to 3 pm\n",
    "lat": -37.761186,
    "lng": 144.755512},
  {
    "id": 28,
    "name": "Deer Park Salvos",
    "address": "Lot 2 Westwood Drive, Deer Park VIC 3023",
    "opentime": "Mon - Fri 9.00-5.30\nSat 9.00-5.00\nSun Donations only.  11-4pm\n",
    "lat": -37.7614308,
    "lng": 144.7561798},
  {
    "id": 29,
    "name": "Vinnies Altona (North)",
    "address": "99 Doherty's Road, Altona North VIC 3025",
    "opentime": "Mon - Fri 8:00 AM -  3:30 PM\nSat 9:00 AM - 4:00 PM\nSun Closed\n",
    "lat": -37.831525,
    "lng": 144.821506},
  {
    "id": 30,
    "name": "Lighthouse Laverton",
    "address": "58 Woods Street, Laverton 3028",
    "opentime": "9-5 Mon-Fri, 9-3 Sat\n",
    "lat": -37.862225,
    "lng": 144.77184},
  {
    "id": 31,
    "name": "Brotherhood Hoppers Crossing",
    "address": "19 Elm Park Drive, Hoppers Crossing VIC 3030",
    "opentime": "Mon - Sun 9.30am to 5.00pm\n",
    "lat": -37.8725672,
    "lng": 144.71988100000002},
  {
    "id": 32,
    "name": "Vinnies Hoppers Crossing",
    "address": "12/10 Costas Drive, Hoppers Crossing VIC 3029",
    "opentime": "Mon - Fri 9:00 AM - 5:00 PM\nSat 9:00 AM - 5:00 PM\nSun 10:00 AM - 5:00 \n",
    "lat": -37.8744078,
    "lng": 144.71884319999998},
  {
    "id": 33,
    "name": "Take 2 Opportunity Shop",
    "address": "Corner Heaths Road and Derrimut Road, Werribee, 3030",
    "opentime": "Wed - Fri 10am-3pm\nSat 1st Sat of Month 9am-1pm\n",
    "lat": -37.8776144,
    "lng": 144.68292130000003},
  {
    "id": 34,
    "name": "Take2 Op Shop",
    "address": "235 Derimut Rd, Hoppers Crossing",
    "opentime": "Tue - Fri 10am - 3pm\nSat 9am - 1pm\n",
    "lat": -37.8732532,
    "lng": 144.682955},
  {
    "id": 35,
    "name": "Lighthouse Hoppers Crossing",
    "address": "21/13B Elm Park Drive, Hoppers Crossing",
    "opentime": "9-5 Mon-Sat\n",
    "lat": -37.8729576,
    "lng": 144.7191089},
  {
    "id": 36,
    "name": "Salvos Store Hoppers Crossing ",
    "address": "174-180 Old Geelong Rd Hoppers Crossing 3029",
    "opentime": "Mon - Fri 9 - 5:30\nSat 9 - 5\nSun Donations Only\n",
    "lat": -37.8766721,
    "lng": 144.71507340000002},
  {
    "id": 37,
    "name": "Salvation Army Thrift Shop",
    "address": "84 Synnot St Werribee VIC 3030 Australia",
    "opentime": "Mon - Sat 9am to 5pm\n",
    "lat": -37.904680000000006,
    "lng": 144.657433},
  {
    "id": 38,
    "name": "Uniting Op Shop ",
    "address": "35 Synnot St, Werribee VIC 3030",
    "opentime": "Mon - Sat Yes\nSun no\n",
    "lat": -37.9025769,
    "lng": 144.66226909999997},
  {
    "id": 39,
    "name": "Lions on Mane",
    "address": "Princes Highway, Yarragon Vic",
    "opentime": "Mon - Tue Closed\nWed - Sun 10.00am to 4.00pm\n",
    "lat": -37.7891316,
    "lng": 144.92289399999999},
  {
    "id": 40,
    "name": "Rotary Shop Flemington",
    "address": "444 Racecourse Rd, Flemington VIC",
    "opentime": "Tue - Fri 10am - 5pm\nSat 10am - 3pm\n",
    "lat": -37.787527000000004,
    "lng": 144.92561},
  {
    "id": 41,
    "name": "St George's Parish Bargain Shop",
    "address": "302 Racecourse Road",
    "opentime": "Mon - Wed 10am - 4pm\nThu - Fri 10am - 5pm\nSat 11am - 1pm\nSun Closed\n",
    "lat": -37.788031700000005,
    "lng": 144.9305652},
  {
    "id": 42,
    "name": "Vinnies Ascot Vale",
    "address": "155 Maribyrnong Road, Ascot Vale VIC 3032",
    "opentime": "Mon - Sat 9:00 AM - 5:00 PM\nSun 10:00 AM - 4:00 PM \n",
    "lat": -37.771606,
    "lng": 144.913521},
  {
    "id": 43,
    "name": " All Saints Opportunity Shop Ascot Vale",
    "address": "215 Union Rd, Ascot Vale VIC",
    "opentime": "Mon Monday 10 to 3\nTue Tuesday 10 to 3\nWed Wednesday 10 to 3\nThu Thursday 10 to 3\nFri Friday 10 to 3\nSat Saturday 10 to 3\nSun Closed\n",
    "lat": -37.772431,
    "lng": 144.915837},
  {
    "id": 44,
    "name": "Helping Hands Centreway Op Shop",
    "address": "26 Centreway, Keilor East",
    "opentime": "Mon - Sat 10am - 4pm\n",
    "lat": -37.732265999999996,
    "lng": 144.86655},
  {
    "id": 45,
    "name": "Brotherhood Moonee Ponds",
    "address": "24 Margaret Street, Moonee Ponds",
    "opentime": "Mon - Fri 9:30am - 5:30pm\nSat 9:30am - 5pm\nSun 10am - 4pm\n",
    "lat": -37.7656307,
    "lng": 144.9197642},
  {
    "id": 46,
    "name": "Community Wardrobe",
    "address": "133 Puckle St, Moonee Ponds VIC 3039",
    "opentime": "Mon - Fri 9am - 4.45pm\nSat 10am-3.45pm\nSun Closed\n",
    "lat": -37.766807,
    "lng": 144.9200306},
  {
    "id": 47,
    "name": "Save The Children - Moonee Ponds",
    "address": "121 Puckle St, Moonee Ponds",
    "opentime": "Mon - Fri 9:30am - 4:30pm\nSat 9:30am - 3:30pm\n",
    "lat": -37.7668472,
    "lng": 144.9203547},
  {
    "id": 48,
    "name": "Moonee Ponds Red Cross",
    "address": "64 Puckle St, Moonee Ponds VIC 3039",
    "opentime": "Mon - Fri 9:30am - 5:00pm\nSat - Sun 10:00am - 4:00pm\n",
    "lat": -37.7667602,
    "lng": 144.92259919999998},
  {
    "id": 49,
    "name": "Christ Church Opportunity Shop - Essendon",
    "address": "Cnr Marco Polo St & Mt Alexander Rd, Essendon VIC",
    "opentime": "Tue - Fri 10 - 4pm\nSat 9.30 - 12.30\n",
    "lat": -37.7473561,
    "lng": 144.9119462},
  {
    "id": 50,
    "name": "St John's Uniting Church Op Shop",
    "address": "Corner Buckley Rd & Mt Alexander Street, Essendon, Vic, 3040",
    "opentime": "Tue - Wed Closed\nThu - Fri 10am-3pm\nSat 10am-1pm\nSun Closed\n",
    "lat": -37.7571777,
    "lng": 144.9186956},
  {
    "id": 51,
    "name": "Rowallen Op Shop - Essendon",
    "address": "10 Russell, Essendon VIC",
    "opentime": "Mon - Fri 10am - 4pm\nSat 10am - 12pm\n",
    "lat": -37.7554119,
    "lng": 144.91689580000002},
  {
    "id": 52,
    "name": "Niddrie Salvos",
    "address": "4/302 Keilor Road North Essendon, Niddrie VIC 3041",
    "opentime": "Mon - Fri 9.00-5.30\nSat 9.00-5.00\n",
    "lat": -37.737931599999996,
    "lng": 144.89456940000002},
  {
    "id": 53,
    "name": "Helping Hands Mission - Op Shop Clearance Centre  ",
    "address": "492 Fullarton Road, Airport West, Victoria 3042",
    "opentime": "Mon - Sat 10am to 4pm\n",
    "lat": -37.728249700000006,
    "lng": 144.8679005},
  {
    "id": 54,
    "name": "Helping Hands Mission Op Shop",
    "address": "18 Knighton Avenue, Airport West",
    "opentime": "Mon - Fri 10am - 4pm\nSat 10am - 1pm\n",
    "lat": -37.726796,
    "lng": 144.867244},
  {
    "id": 55,
    "name": "Trinos Op Shop",
    "address": "150A Cumberland Road, Pascoe Vale",
    "opentime": "Mon - Fri 9.30-3.30\nSat 9.30 am-12.00pm\nSun Closed\n",
    "lat": -37.72833050000001,
    "lng": 144.939224},
  {
    "id": 56,
    "name": "Second Sails",
    "address": "22 pascoe street",
    "opentime": "Mon - Sat 9am-4pm\n",
    "lat": -37.7150436,
    "lng": 144.93403659999998},
  {
    "id": 57,
    "name": "Glenroy Bargain Centre - Glenroy",
    "address": "88 Wheatsheaf Road, Glenroy VIC",
    "opentime": "Mon - Fri 9am-5pm\n",
    "lat": -37.706292,
    "lng": 144.91937},
  {
    "id": 58,
    "name": "Glenroy  Salvos",
    "address": "Unit 5/830 Pascoe Vale Road, Glenroy VIC 3046",
    "opentime": "Mon - Fri 9.00-5.30\nSat 9.00-5.00\n",
    "lat": -37.7034129,
    "lng": 144.9157161},
  {
    "id": 59,
    "name": "Rotary Opportunity Shop - Glenroy",
    "address": "cnr Waterloo Rd and Glenroy Rd, Glenroy VIC",
    "opentime": "Sat 9:00-12:00\n",
    "lat": -37.7059448,
    "lng": 144.9178726},
  {
    "id": 60,
    "name": "Vinnies Glenroy",
    "address": "826 Pascoe Vale Road, Glenroy VIC 3047",
    "opentime": "Mon - Fri 9:00 AM - 5:00 PM\nSat 10:00 AM - 4:00 PM\n",
    "lat": -37.703905,
    "lng": 144.915876},
  {
    "id": 61,
    "name": "Helping Hands Roxburgh Park Op Shop",
    "address": "Shop 2, 2-10 Reservoir Drive, Roxburgh Park",
    "opentime": "Mon - Fri 9:30am - 4pm\nSat 10am - 2pm\n",
    "lat": -37.6438952,
    "lng": 144.9299319},
  {
    "id": 62,
    "name": "The Bridge Op Shop - Westmeadows",
    "address": "34B Fawkner Street, Westmeadows VIC",
    "opentime": "Tue - Fri 10-3\nSat 10-12\n",
    "lat": -37.677092,
    "lng": 144.88694099999998},
  {
    "id": 63,
    "name": "St Alban's Jumble Centre - North Melbourne",
    "address": "55 Melrose Street, North Melbourne VIC",
    "opentime": "Tue - Sat 10:30-2:30\n",
    "lat": -37.79418030000001,
    "lng": 144.9416679},
  {
    "id": 64,
    "name": "Community First Op Shop",
    "address": "Queensberry Street, North Melbourne",
    "opentime": "Unknown\n",
    "lat": -37.8030584,
    "lng": 144.95007969999997},
  {
    "id": 65,
    "name": "Carlton Salvos",
    "address": "747 Nicholson Street, Carlton VIC 3053",
    "opentime": "Mon - Fri 9.30-5.30\nSat 9.00-5.00\n",
    "lat": -37.781839,
    "lng": 144.97753899999998},
  {
    "id": 66,
    "name": "Velo Cycles",
    "address": "815 Nicholson Street, Carlton North VIC 3054,",
    "opentime": "Mon - Fri 8:00am - 6:30pm\nSat - Sun 9:00am - 5:00pm\n",
    "lat": -37.7799554,
    "lng": 144.9774688},
  {
    "id": 67,
    "name": "St John's Op Shop - Brunswick West",
    "address": "494A Victoria Street, Brunswick West VIC",
    "opentime": "Sat 9:30-1:00\n",
    "lat": -37.7650826,
    "lng": 144.94436389999998},
  {
    "id": 68,
    "name": "Brunswick Style",
    "address": "169 Sydney Road, Brunswick, Vic. 3056",
    "opentime": "Mon - Fri 12pm-5:30pm\nSat - Sun 11am-5:30pm\n",
    "lat": -37.77321,
    "lng": 144.960898},
  {
    "id": 69,
    "name": "Melbourne Pet Rescue Superstore",
    "address": "17-21 David Street, Brunswick 3056",
    "opentime": "Mon - Sun 10:00 - 5:30\n",
    "lat": -37.7706905,
    "lng": 144.96221450000002},
  {
    "id": 70,
    "name": "Brunswick Salvos",
    "address": "740 Sydney Road, Brunswick VIC 3056",
    "opentime": "Mon - Fri 9.00-5.30\nSat 9.00-5.00\n",
    "lat": -37.7598833,
    "lng": 144.9635576},
  {
    "id": 71,
    "name": "Save The Children Op Shop ",
    "address": "478 Sydney Rd, Brunswick ",
    "opentime": "Mon - Sat 10am-5pm\n",
    "lat": -37.7667814,
    "lng": 144.9625388},
  {
    "id": 72,
    "name": "Savers Brunswick",
    "address": "330 Sydney Rd, Brunswick",
    "opentime": "Mon - Wed 9am - 7pm\nThu - Fri 9am - 9pm\nSat 9am - 7pm\nSun 9am-7pm\n",
    "lat": -37.770196999999996,
    "lng": 144.961764},
  {
    "id": 73,
    "name": "Vinnies Brunswick",
    "address": "107 Sydney Road, Brunswick VIC 3056",
    "opentime": "Mon - Fri 10:00 AM - 6:00 PM\nSat 9:00 AM - 5:00 PM\nSun 10:00 AM - 4:00 PM\n",
    "lat": -37.774981,
    "lng": 144.960622},
  {
    "id": 74,
    "name": "Don Bosco Brunswick Youth Foundation Inc. Opportunity Shop - Brunswick",
    "address": "368 Sydney Rd, Brunswick VIC",
    "opentime": "Mon - Fri 9:30-4:30\nSat 9:30-4:00\n",
    "lat": -37.769281,
    "lng": 144.961937},
  {
    "id": 75,
    "name": "saxon street",
    "address": "1 Saxon Street, Brunswick Vic 3056",
    "opentime": "Unknown\n",
    "lat": -37.7729967,
    "lng": 144.960138},
  {
    "id": 76,
    "name": "Brotherhood Brunswick",
    "address": "109 Brunswick Road, Brunswick",
    "opentime": "Mon - Sat 9:30am - 5pm\nSun 10am - 4pm\n",
    "lat": -37.777871000000005,
    "lng": 144.96987430000001},
  {
    "id": 77,
    "name": "Christ Church Opportunity Shop - Brunswick",
    "address": "10 Glenlyon Road, Brunswick VIC",
    "opentime": "Fri - Sat 10:00-4:00\n",
    "lat": -37.7719047,
    "lng": 144.96251719999998},
  {
    "id": 78,
    "name": "Coburg Salvos",
    "address": "452 Sydney Road, Coburg VIC 3058",
    "opentime": "Mon - Fri 9.30-5.30\nSat 9.00-5.00\n",
    "lat": -37.7427422,
    "lng": 144.96674430000002},
  {
    "id": 79,
    "name": "Vinnies Coburg",
    "address": "260 Sydney Road, Coburg VIC 3058",
    "opentime": "Mon - Fri 9:00 AM - 5:00 PM\nSat 10:00 AM - 4:00 PM\n",
    "lat": -37.7482832,
    "lng": 144.96559219999997},
  {
    "id": 80,
    "name": "Dorothy Impey Opshop",
    "address": "238 Sussex St Pascoe Vale 3058",
    "opentime": "Mon - Fri 10 - 3\nSat 915 - 1145\n",
    "lat": -37.722145000000005,
    "lng": 144.9513215},
  {
    "id": 81,
    "name": "Fawkner Salvos",
    "address": "1323 Sydney Road , Fawkner VIC 3060",
    "opentime": "Mon - Fri 9.00-5.30\nSat 9.00-5.00\n",
    "lat": -37.6991505,
    "lng": 144.95928930000002},
  {
    "id": 82,
    "name": "Save The Children - Fawkner",
    "address": "573 Mahoneys Road, Fawkner",
    "opentime": "Mon - Sun 10am - 4pm\n",
    "lat": -37.690148799999996,
    "lng": 144.9595491},
  {
    "id": 83,
    "name": "Campbellfield Salvos",
    "address": "1/850 Cooper Street, Campbellfield VIC 3061",
    "opentime": "Mon - Fri 9.00-5.00\nSat 9.00-5.00\n",
    "lat": -37.644453999999996,
    "lng": 144.95971},
  {
    "id": 84,
    "name": "Salvation Army Thrift Shop",
    "address": "2/25 Interlink Drive, Craigieburn",
    "opentime": "Mon - Fri 9am - 5pm\nSat 9am - 2pm\nSun Closed\n",
    "lat": -37.60157239999999,
    "lng": 144.9464725},
  {
    "id": 85,
    "name": "Fitzroy Salvos",
    "address": "427 Smith Street, Fitzroy VIC 3065",
    "opentime": "Mon - Sat 9.00-5.00\n",
    "lat": -37.794957700000005,
    "lng": 144.9845044},
  {
    "id": 86,
    "name": "Hunter Gatherer",
    "address": "274 Brunswick Street, Fitzroy",
    "opentime": "Mon - Sun 10:15am to 5:45pm\n",
    "lat": -37.799217,
    "lng": 144.9785561},
  {
    "id": 87,
    "name": "Anglicare Victoria Op Shop - Fitzroy",
    "address": "122 Napier Street, Fitzroy VIC",
    "opentime": "Tue 10am - 3pm\nThu 10am - 3pm\n",
    "lat": -37.8045298,
    "lng": 144.9798685},
  {
    "id": 88,
    "name": "Sacred Heart Mission, Fitzroy Op Shop",
    "address": "433 Brunswick Street, Fitzroy",
    "opentime": "Mon - Sun 10:30am - 5:30pm\n",
    "lat": -37.793962,
    "lng": 144.97900900000002},
  {
    "id": 89,
    "name": "Red Cross Collingwood",
    "address": "328 Smith St, Collingwood VIC 3066",
    "opentime": "Mon - Sat 10am - 6pm\nSun 11am - 4pm\n",
    "lat": -37.7993542,
    "lng": 144.9844388},
  {
    "id": 90,
    "name": "Vinnies Collingwood",
    "address": "121 Johnston Street, Collingwood VIC 3066",
    "opentime": "Mon - Fri 9:00 AM - 5:00 PM\nSat 11:00 AM - 4:00 PM\nSun Closed\n",
    "lat": -37.7981938,
    "lng": 144.9789136},
  {
    "id": 91,
    "name": "St Marks RECYCLED",
    "address": "298 Smith Street VIC",
    "opentime": "Mon - Fri 11:00am - 5:00pm\nSat 11:00am - 5.00pm\n",
    "lat": -37.800297,
    "lng": 144.984276},
  {
    "id": 92,
    "name": "Abbotsford Salvos",
    "address": "81 Victoria Crescent, Abbotsford VIC 3067",
    "opentime": "Mon - Fri 9.00-5.30\nSat 9.00-5.00\n",
    "lat": -37.806141700000005,
    "lng": 144.9986509},
  {
    "id": 93,
    "name": "North Fitzroy Op Shop",
    "address": "806 Nicholson St, North Fitzroy",
    "opentime": "Mon - Fri 10:30am - 5:30pm\nSat 10am - 5:30pm\nSun 10:30am - 5:30pm\n",
    "lat": -37.7805766,
    "lng": 144.978318},
  {
    "id": 94,
    "name": "TC THRIFT",
    "address": "307 High Street Northcote",
    "opentime": "Mon - Sun 10:30am - 5:30pm\n",
    "lat": -37.7712443,
    "lng": 144.9984107},
  {
    "id": 95,
    "name": "Save the Children - Northcote",
    "address": "292 High Street, Northcote VIC",
    "opentime": "Mon - Fri 9.30am - 4.30pm\nSat 9.30am - 3.30pm\n",
    "lat": -37.771584600000004,
    "lng": 144.9988465},
  {
    "id": 96,
    "name": "St Vincent De Paul Society",
    "address": "Cnr High and Separation Sts, Northcote VIC 3070",
    "opentime": "Mon - Sat 9-5\nSun 10-4\n",
    "lat": -37.7693285,
    "lng": 144.9989622},
  {
    "id": 97,
    "name": "Brotherhood Northcote",
    "address": "12a High Street, Northcote",
    "opentime": "Mon - Fri 10am - 4:30pm\nSat 10 am to 2 pm\n",
    "lat": -37.78368409999999,
    "lng": 144.99672719999998},
  {
    "id": 98,
    "name": "Kids First Op Shop",
    "address": "119 Miller Street, Thornbury Victoria",
    "opentime": "Mon - Wed 10.00am - 4.00pm\nThu - Fri 10.00am - 5.00pm\nSat - Sun 10.00am - 2.00pm\n",
    "lat": -37.7512588,
    "lng": 144.9887003},
  {
    "id": 99,
    "name": "Lions Club of Northcote - Thornbury Op Shop",
    "address": "735 High Street, Thornbury VIC",
    "opentime": "Mon - Fri 10am-2pm\nSat 9.30am-1pm\nSun closed\n",
    "lat": -37.7584938,
    "lng": 145.0002346},
  {
    "id": 100,
    "name": "Work For The Soul Penny Pinchers Op Shop Showroom",
    "address": "2 /73 Gower Street Preston",
    "opentime": "Mon - Wed 9.00 - 4.00\nThu 9.00 - 3.00\nFri 9:00 - 4:00\nSat 10.00 - 3.00\n",
    "lat": -37.7405134,
    "lng": 145.0038987},
  {
    "id": 101,
    "name": "Penny Pinchers",
    "address": "Work For The Soul VIC",
    "opentime": "Mon - Thu 8.30 - 4.00\nFri - Sat Opening soon\nSun Opening soon \n",
    "lat": -37.743041999999996,
    "lng": 145.0250524},
  {
    "id": 102,
    "name": "Preston Salvos",
    "address": "371-373 High Street, Preston VIC 3072",
    "opentime": "Mon - Fri 9.00-5.30\nSat 9.00-5.00\n",
    "lat": -37.741025,
    "lng": 145.003283},
  {
    "id": 103,
    "name": "Vinnies Preston",
    "address": "596-598 Plenty Road, Preston VIC 3072",
    "opentime": "Mon - Fri 9:00 AM - 5:00 PM\nSat 10:00 AM - 2:00 PM\nSun Closed\n",
    "lat": -37.734544,
    "lng": 145.013851},
  {
    "id": 104,
    "name": "Northern Community CareWorks Op Shop ",
    "address": "81 High St Preston, Preston",
    "opentime": "Mon - Fri 9.30 - 4.30\nSat 9.30 - 4\n",
    "lat": -37.7496625,
    "lng": 145.0017195},
  {
    "id": 105,
    "name": "Helping Hands Preston Op Shop",
    "address": "66-68 Oakover Road, Preston",
    "opentime": "Mon - Fri 10am - 4pm\nSat 10am - 2pm\n",
    "lat": -37.748805,
    "lng": 144.9933697},
  {
    "id": 106,
    "name": "All Saints Op Shop",
    "address": "239A Murray Road, Preston",
    "opentime": "Mon - Fri 9am - 4pm\nSat 9am - 12 noon\n",
    "lat": -37.738174,
    "lng": 145.00461409999997},
  {
    "id": 107,
    "name": "St George's Op Shop - Reservoir",
    "address": "30 Ralph St, Reservoir VIC",
    "opentime": "Sat 9:00-12:00\n",
    "lat": -37.714853000000005,
    "lng": 145.00441719999998},
  {
    "id": 108,
    "name": "Op Shop",
    "address": "252 Broadway  Reservoir",
    "opentime": "Mon - Fri 9.30 to 4.00pm\nSat 9.30 to 1pm\n",
    "lat": -37.7167465,
    "lng": 145.0096303},
  {
    "id": 109,
    "name": "Lalor Salvos",
    "address": "20 - 22 May Road, Lalor VIC 3075",
    "opentime": "Mon - Fri 9.00-5.30\nSat 9:00-5:00\n",
    "lat": -37.672219,
    "lng": 145.0178616},
  {
    "id": 110,
    "name": "Vinnies Epping",
    "address": "Shop 4/500 High Street, Epping VIC 3076",
    "opentime": "Mon - Fri 9:00 AM - 5:00 PM\nSat 9:00 AM - 5:00 PM\nSun  10:00 AM - 4:00\n",
    "lat": -37.658899,
    "lng": 145.020253},
  {
    "id": 111,
    "name": "Fairfield Salvos",
    "address": "300 Station Street, Fairfield VIC 3078",
    "opentime": "Mon - Fri 9.00-5.30\nSat 9.00-5.00\n",
    "lat": -37.766404,
    "lng": 145.019878},
  {
    "id": 112,
    "name": "MS Community Shop - FAIRFIELD",
    "address": "SHOP 88c STATION STREET, FAIRFIELD",
    "opentime": "Mon - Fri 9:30am - 5:00pm\nSat 10:00am - 2:00pm\n",
    "lat": -37.778175,
    "lng": 145.018027},
  {
    "id": 113,
    "name": "Brotherhood Ivanhoe",
    "address": "220 Upper Heidelberg Road, Ivanhoe",
    "opentime": "Mon - Fri 10am to 4.30pm\nSat 10am to 1pm\nSun CLOSED\n",
    "lat": -37.767232899999996,
    "lng": 145.0446434},
  {
    "id": 114,
    "name": "St George's Anglican Church Op Shop - Ivanhoe East",
    "address": "46 Warncliffe Rd, Ivanhoe East VIC",
    "opentime": "Wed - Fri 10-4pm\nSat 9.30-12noon\n",
    "lat": -37.773960100000004,
    "lng": 145.06006269999997},
  {
    "id": 115,
    "name": "Heidelberg Salvos",
    "address": "154 Bell Street, Heidelberg Heights VIC 3081",
    "opentime": "Mon - Sat 9.00-5.00\n",
    "lat": -37.7526487,
    "lng": 145.0507372},
  {
    "id": 116,
    "name": "Austin Health Heidelberg Op Shop",
    "address": "12 The Mall  Heidelberg West 3081",
    "opentime": "Mon - Fri 10am - 3pm\nSat 10am - 1:30pm\n",
    "lat": -37.74961679999999,
    "lng": 145.042641},
  {
    "id": 117,
    "name": "Kool-se",
    "address": "Shop 61 The Mall Heidelberg West",
    "opentime": "Mon - Fri 10-3\nSat 10-1\n",
    "lat": -37.748226,
    "lng": 145.042472},
  {
    "id": 118,
    "name": "Vinnies Heidelberg West",
    "address": "40-44 The Mall, Heidelberg West VIC 3081",
    "opentime": "Mon - Sat 9:00 AM - 5:00 PM\nSun Closed\n",
    "lat": -37.74878,
    "lng": 145.04274099999998},
  {
    "id": 119,
    "name": "Salvos",
    "address": "3 McLean Rd Bundoora",
    "opentime": "Sun Closed \n",
    "lat": -37.694657799999995,
    "lng": 145.0590554},
  {
    "id": 120,
    "name": "Kids First Op Shop",
    "address": "43 Beetham Pde, Rosanna",
    "opentime": "Mon - Fri 10am - 4pm\nSat 10.00am - 1.00pm\nSun CLOSED\n",
    "lat": -37.74395,
    "lng": 145.06571399999999},
  {
    "id": 121,
    "name": "St Andrew's Anglican Church Opportunity Shop - Macleod",
    "address": "76 Aberdeen Street, Macleod VIC",
    "opentime": "Sat 10:00-12:00\n",
    "lat": -37.72620379999999,
    "lng": 145.0708089},
  {
    "id": 122,
    "name": "New to You BANSIC Op Shop",
    "address": "2/76 Aberdeen St macleod",
    "opentime": "Mon Closed\nTue 9:30am -4pm\nWed 9:30 am- 4pm\nThu - Fri 9:30am - 4pm\nSat 9:00am - 1pm\nSun Closed\n",
    "lat": -37.72620379999999,
    "lng": 145.0708089},
  {
    "id": 123,
    "name": "Strathalan Opportunity Shop - Macleod",
    "address": "2-34 Erskine Rd, Macleod VIC",
    "opentime": "Unknown\n",
    "lat": -37.7286558,
    "lng": 145.0779891},
  {
    "id": 124,
    "name": "Diamond Valley Community Op Shop",
    "address": "44 Aberdeen Road, Macleod Vic 3085",
    "opentime": "Mon - Fri 9.30am - 4.30pm\nSat 9.30am - 1.00pm\n",
    "lat": -37.7271679,
    "lng": 145.07049650000002},
  {
    "id": 125,
    "name": "Red Cross - Watsonia",
    "address": "75 Watsonia Rd, Watsonia VIC",
    "opentime": "Mon-Fri 10:00-4:30\nSat 10:00-1:00\n",
    "lat": -37.7096,
    "lng": 145.082511},
  {
    "id": 126,
    "name": "Watsonia Salvos",
    "address": "Shop 3, 103 Watsonia Road, Watsonia VIC 3087",
    "opentime": "Mon - Fri 9.00-5.30\nSat 9.00-5.00\n",
    "lat": -37.70856,
    "lng": 145.082806},
    {
    "id": 127,
    "name": "Brotherhood Watsonia",
    "address": "78 Watsonia Rd, Watsonia",
    "opentime": "Mon - Fri 9am - 4pm\nSat 9:30am - 12pm\n",
    "lat": -37.7099365,
    "lng": 145.0831729},
    {
    "id": 128,
    "name": "Vinnies Briar Hill",
    "address": "23 Sherbourne Road, Briar Hill VIC 3088",
    "opentime": "Mon - Fri 9:00 AM - 5:00 PM\nSat 10:00 AM - 2:00 PM\nSun Closed\n",
    "lat": -37.710152,
    "lng": 145.117504},
    {
    "id": 129,
    "name": "SJOG Greensborough",
    "address": "Shop 15, Apollo Park Way Shopping Centre,  29 Civic Drive, Greensborough",
    "opentime": "Mon - Fri 9am - 4pm\nSat 1st of each month 9am - 1pm\n",
    "lat": -37.687754299999995,
    "lng": 145.1082059},
    {
    "id": 130,
    "name": "Savers Greensborough",
    "address": "Shop 7, 108-114 Main St, Greensborough",
    "opentime": "Mon - Wed 9am - 7pm\nThu - Fri 9am - 9pm\nSat - Sun 9am - 7pm\n",
    "lat": -37.7029254,
    "lng": 145.10581619999996},
    {
    "id": 131,
    "name": "Brotherhood Greensborough",
    "address": "Rear Shop 6, Cnr Main Street and Para Road, Greensborough",
    "opentime": "Mon - Fri 9am - 4pm\nSat 9am to 12:30pm\n",
    "lat": -37.7030211,
    "lng": 145.10602580000003},
    {
    "id": 132,
    "name": "RSPCA greensborough ",
    "address": "87 Main Street greensborough ",
    "opentime": "Mon - Fri 10-4:00\nSat 10-2 \nSun Not open\n",
    "lat": -37.7026393,
    "lng": 145.1052229},
    {
    "id": 133,
    "name": "Diamond Creek - Austin Health Opportunity Shop",
    "address": "42-44 Main Hurtsbridge Rd, Diamond Creek VIC",
    "opentime": "Mon - Sat 9:30 am to 4pm\n",
    "lat": -37.674485,
    "lng": 145.157421},
    {
    "id": 134,
    "name": "Epic Treasure Trove - Diamond Creek",
    "address": "42 Chute St, Diamond Creek VIC",
    "opentime": "Mon-Fri 10:00-4:30\nSat 10:00-12:30\n",
    "lat": -37.673254,
    "lng": 145.151574},
    {
    "id": 135,
    "name": "Brotherhood Eltham Mall",
    "address": "10 Arthur Street, Eltham",
    "opentime": "Mon - Fri 9am - 4:30pm\nSat 9.30 am to 1 pm\n",
    "lat": -37.714637100000004,
    "lng": 145.1496324},
    {
    "id": 136,
    "name": "Hurstbridge Op Shop - Hurstbridge",
    "address": "958 Main Rd, Hurstbridge VIC",
    "opentime": "Wed - Sat 9am - 4pm\n",
    "lat": -37.63756370000001,
    "lng": 145.1943947},
    {
    "id": 137,
    "name": "Kew Salvos",
    "address": "243 - 247 High Street, Kew",
    "opentime": "Mon - Fri 9.00am - 5.30pm\nSat 9.00am - 5.00pm\n",
    "lat": -37.805687,
    "lng": 145.033357},
    {
    "id": 138,
    "name": "MS Community Shop Kew",
    "address": "290 High Street Kew VIC 3101",
    "opentime": "Mon - Fri 9:30am - 5:00pm\nSat 9:30am - 2:00pm\n",
    "lat": -37.8054978,
    "lng": 145.0349331},
    {
    "id": 139,
    "name": "Fair Trade &amp;amp; Gift Shop",
    "address": "650 High Street, Kew East, Vic 3102",
    "opentime": "Mon Monday 9.30am - 4.30pm\nTue Tuesday 9.30am - 4.30pm\nWed Wednesday 9.30am - 4.30pm\nThu Thursday 9.30am - 4.30pm\nFri Friday 9.30am - 4.30pm\nSat Saturday 9.30am - 4.00pm\nSun Closed\n",
    "lat": -37.799009000000005,
    "lng": 145.051774},
    {
    "id": 140,
    "name": "Vinnies Kew East",
    "address": "735 High St, Kew East VIC 3102",
    "opentime": "Mon - Sat 9am-5pm\nSun 10am-5pm\n",
    "lat": -37.797109999999996,
    "lng": 145.055219},
    {
    "id": 141,
    "name": "Balwyn Salvos",
    "address": "307 Whitehorse Road, Balwyn VIC 3103",
    "opentime": "Mon - Sat 9.00-5.00\n",
    "lat": -37.812469,
    "lng": 145.079523},
    {
    "id": 142,
    "name": "VMCH Balwyn Opportunity Shop",
    "address": "463 Whitehorse Road, Balwyn, Melbourne, Victoria",
    "opentime": "Mon - Fri 9.30am - 4pm\nSat 9.30am - 1pm\nSun Closed\n",
    "lat": -37.813264600000004,
    "lng": 145.086275},
    {
    "id": 143,
    "name": "Doncare Opportunity Shop Bulleen Plaza",
    "address": "2a bulleen plaza, Manningham road, bulleen",
    "opentime": "Mon - Fri 9:30 am-5:00 pm\nSat 10:00 am - 2:00 pm\n",
    "lat": -37.7658333,
    "lng": 145.0916667},
    {
    "id": 144,
    "name": "Doncare Opportunity Shop - Bulleen Plaza ",
    "address": "Shop 2A, Bulleen Plaza Shopping Centre Manningham Road",
    "opentime": "Mon - Fri 9am-5pm\nSat 10am-2pm\n",
    "lat": -37.7658333,
    "lng": 145.0916667},
    {
    "id": 145,
    "name": "Doncare Opportunity Shop - Templestowe Village",
    "address": "Shop 23 (Rear) Anderson Street, Templestowe VIC",
    "opentime": "Mon - Fri 10:00-4:00\nSat 10:00-12:30\n",
    "lat": -37.757492,
    "lng": 145.12974499999999},
    {
    "id": 146,
    "name": "Doncare Opportunity Shop - Macedon Plaza",
    "address": "Shop 4, Macedon Plaza, Cnr. Manningham Rd and High Street, Lower Templestowe-",
    "opentime": "Mon - Fri 10am - 5pm\nSat 10am - 2pm\n",
    "lat": -37.77294439999999,
    "lng": 145.1132278},
    {
    "id": 147,
    "name": "Doncare Opportunity Shop - Templestowe Village",
    "address": "Cnr Manningham Rd and High Street, Lower Templestowe VIC",
    "opentime": "Mon - Fri 10am-4pm\nSat 10am-12.30pm\n",
    "lat": -37.7738092,
    "lng": 145.1142301},
    {
    "id": 148,
    "name": "Doncaster East Red Cross",
    "address": "Shop 67B Tunstall Square\tDoncaster East\tVIC 3109",
    "opentime": "Mon - Sat 9:30am - 5:00pm\n",
    "lat": -37.7906677,
    "lng": 145.1722291},
    {
    "id": 149,
    "name": "Doncare Opportunity Shops Jackson Court",
    "address": "70 Jackson Court, doncaster east",
    "opentime": "Mon - Fri 9:30 am-4:30 pm\nSat 10:00 am - 2:00 pm\n",
    "lat": -37.788754,
    "lng": 145.148488},
    {
    "id": 150,
    "name": "Rotary Rummage Shop",
    "address": "8 Mitchell St, Jackson Court, East Doncaster",
    "opentime": "Unknown\n",
    "lat": -37.787843,
    "lng": 145.14842},
    {
    "id": 151,
    "name": "Doncaster Salvos",
    "address": "916C Doncaster Road, Doncaster VIC 3109",
    "opentime": "Mon - Fri 9.00-5.30\nSat 9.00-5.00\n",
    "lat": -37.788044,
    "lng": 145.150323},
    {
    "id": 152,
    "name": "Doncare Opportunity Shop - Tunstall Square",
    "address": "34 Tunstall Square, Doncaster East, Victoria, 3109",
    "opentime": "Mon - Fri 9.30am-4.30pm\nSat 10am - 1.30pm\n",
    "lat": -37.7920487,
    "lng": 145.17003069999998},
    {
    "id": 153,
    "name": "Rotary Op Shop - Warrandyte",
    "address": "266 Yarra Street",
    "opentime": "Mon - Sun 10am - 4pm\n",
    "lat": -37.73745,
    "lng": 145.223894},
    {
    "id": 154,
    "name": "Lions Opportunity Shop - Warrandyte",
    "address": "168 Yarra Street, Warrandyte VIC",
    "opentime": "Mon - Fri 10:30am - 4:30pm\nSat - Sun 11am - 5pm\n",
    "lat": -37.7377255,
    "lng": 145.21959719999998},
    {
    "id": 155,
    "name": "Richmond Red Cross",
    "address": "120 Swan Street, Richmond, 3121",
    "opentime": "Mon - Fri 10am - 5pm\nSat 10am - 3pm\n",
    "lat": -37.8253864,
    "lng": 144.99381330000003},
    {
    "id": 156,
    "name": "St Bart's Op Shop",
    "address": "St Bartholomew's Anglican Church Hall, 290 Burnley Street, Richmond, Victoria, 3121",
    "opentime": "Mon - Sat 10.00am to 4.00pm\nSun Not open\n",
    "lat": -37.8233875,
    "lng": 145.0073907},
    {
    "id": 157,
    "name": "Red Cross",
    "address": "191 Bridge Road VIC",
    "opentime": "Mon - Thu 10am - 6pm\nFri 10am - 7pm\nSat 10am - 6pm\nSun 11am - 5pm\n",
    "lat": -37.818081,
    "lng": 144.996199},
    {
    "id": 158,
    "name": "salvos",
    "address": "42-48 Victoria st. Richmond VIC",
    "opentime": "Unknown\n",
    "lat": -37.809946999999994,
    "lng": 144.993124},
    {
    "id": 159,
    "name": "Storehouse thrift",
    "address": "199 Bridge Rd Richmond",
    "opentime": "Mon 10:30am -5:30pm\nTue - Sun 10:30am - 5:30pm\n",
    "lat": -37.818105200000005,
    "lng": 144.996404},
    {
    "id": 160,
    "name": "Hawthorn Red Cross",
    "address": "764 Glenferrie Rd, Hawthorn VIC 3122",
    "opentime": "Mon - Thu 9:30am - 5:30pm\nFri 9:30am - 6:00pm\nSat 9:30am - 5:00pm\nSun 12:00am - 4:00pm\n",
    "lat": -37.818614000000004,
    "lng": 145.03628500000002},
    {
    "id": 161,
    "name": "Vinnies Hawthorn",
    "address": "254 Auburn Road, Hawthorn VIC 3122",
    "opentime": "Mon - Sat 9am - 5pm\nSun 10am - 4pm\n",
    "lat": -37.828578,
    "lng": 145.043679},
    {
    "id": 162,
    "name": "Sacred Heart Mission - Hawthorn",
    "address": "86 Riversdale Road (corner of Glenferrie Road) Hawthorn",
    "opentime": "Mon - Fri 10am - 5:30pm\nSat - Sun  10am - 5.30pm\n",
    "lat": -37.828875,
    "lng": 145.03391100000002},
    {
    "id": 163,
    "name": "Hawthorn Salvos",
    "address": "183 Burwood Road, Hawthorn  VIC 3122",
    "opentime": "Mon - Fri 9am - 5:30pm\nSat 9am - 5pm\n",
    "lat": -37.821709000000006,
    "lng": 145.0290557},
    {
    "id": 164,
    "name": "Epic Treasure Trove - Hawthorn",
    "address": "111 Auburn Rd, Hawthorn VIC",
    "opentime": "Mon-Fri 10:00-4:30\nSat 10:00-3:00\n",
    "lat": -37.8228278,
    "lng": 145.04518169999997},
    {
    "id": 165,
    "name": "Animal Liberation - Burwood",
    "address": "1355 Toorak Rd, Burwood VIC",
    "opentime": "Mon - Fri 10:30a - 4:30p\nSat 11a - 4pm\nSun 10:30a - 4:30p\n",
    "lat": -37.8499312,
    "lng": 145.0927697},
    {
    "id": 166,
    "name": "Boroondara Central Lions Op Shop",
    "address": "1350C Toorak Road, Camberwell, Victoria, 3124",
    "opentime": "Mon - Thu 10.30 am to 4.30 pm\nFri 10.30 am to 4.00 pm\nSat 9.30 am to 12.30 pm\nSun Closed\n",
    "lat": -37.8502169,
    "lng": 145.0923191},
    {
    "id": 167,
    "name": "Salvos - Camberwell",
    "address": "529 Riversdale Road, Camberwell VIC 3124",
    "opentime": "Mon - Fri 9.00-5.30\nSat 9.00-5.00\n",
    "lat": -37.831387,
    "lng": 145.05821699999998},
    {
    "id": 168,
    "name": "Camberwell Red Cross",
    "address": "Shop B / 666 Bourke Road, Camberwell VIC 3124",
    "opentime": "Mon - Sat 9:30am - 5:30pm\nSun 11:00am - 5:00pm\n",
    "lat": -37.82858,
    "lng": 145.057427},
    {
    "id": 169,
    "name": "MISSION OP SHOP",
    "address": "126 Canterbury Rd, Bayswater North VIC 3153",
    "opentime": "Mon - Fri 10:00am to 4:00pm\nSat 10:00am to 2:00pm\nSun Closed\n",
    "lat": -37.8245888,
    "lng": 145.2902468},
    {
    "id": 170,
    "name": "Vinnies Mont Albert",
    "address": "24 Hamilton Street, Mont Albert VIC 3127",
    "opentime": "Mon - Fri 9:30 AM - 4:00 PM\nSat 9:30 AM - 12:00 PM\nSun Closed\n",
    "lat": -37.8205719,
    "lng": 145.105309},
    {
    "id": 171,
    "name": "Kindilan Op Shop - Mont Albert",
    "address": "9 Hamilton St, Mont Albert VIC",
    "opentime": "Mon - Fri 10am - 5pm\nSat 9:30am - 12:30pm\n",
    "lat": -37.8203013,
    "lng": 145.1049919},
    {
    "id": 172,
    "name": "Rotary Recycle",
    "address": "1113 Riversdale Road, Surrey Hills",
    "opentime": "Mon Closed\nTue - Fri 10am - 4pm\nSat 10am - 1pm \nSun Closed\n",
    "lat": -37.8373888,
    "lng": 145.1105354},
    {
    "id": 173,
    "name": "Rotary Recycle",
    "address": "1113 Riversdale Road, Surrey Hills ",
    "opentime": "Mon Closed\nTue - Fri 10am - 4pm\nSat 10am - 1pm\nSun Closed\n",
    "lat": -37.8373888,
    "lng": 145.1105354},
    {
    "id": 174,
    "name": "Alkira Op Shop",
    "address": "3 Thurston St, Box Hill",
    "opentime": "Tue - Fri 10-3pm\n",
    "lat": -37.8207458,
    "lng": 145.1193924},
    {
    "id": 175,
    "name": "Doncare Opportunity Shop - North Blackburn",
    "address": "Shop 38, North Blackburn Shopping Centre, Springfield Road, North Blackburn VIC",
    "opentime": "Mon - Fri  9:00-5:30\nSat 9:00-5:00\n",
    "lat": -37.8110588,
    "lng": 145.1528934},
    {
    "id": 176,
    "name": "Epilepsy Op Shop Blackburn",
    "address": "82 South Pde, Blackburn VIC",
    "opentime": "Mon - Fri 9:30-4:30\nSat 9:30-2:30\nSun 10:30-2:30\n",
    "lat": -37.820677,
    "lng": 145.150906},
    {
    "id": 177,
    "name": "Rotary Recycled Treasures",
    "address": "113 Canterbury Rd, Blackburn Sth, 3130",
    "opentime": "Mon - Fri 10am-4pm\nSat 9:30am-12:30pm\n",
    "lat": -37.831483,
    "lng": 145.14690900000002},
    {
    "id": 178,
    "name": "Animal Aid Op Shop",
    "address": "130 Canterbury Rd, Blackburn Sth",
    "opentime": "Mon closed\n",
    "lat": -37.832031,
    "lng": 145.147952},
    {
    "id": 179,
    "name": "MISSION OP SHOP",
    "address": "126B Canterbury Road, Blackburn South",
    "opentime": "Mon - Fri 10AM to 4PM\nSat 10AM to 1PM\n",
    "lat": -37.832121,
    "lng": 145.14752109999998},
    {
    "id": 180,
    "name": "YES OP Shop",
    "address": "55. Mahoneys Road. Forest Hill. 3131",
    "opentime": "Mon - Fri 9.30am-5pm\nSat 9.30am-4pm\nSun Closed\n",
    "lat": -37.83566500000001,
    "lng": 145.166497},
    {
    "id": 181,
    "name": "This N That Community Store",
    "address": "25 Brentford Square, Canterbury Rd, Forest Hill",
    "opentime": "Mon - Fri 10am - 4pm\nSat 10am - 2pm\nSun CLOSED\n",
    "lat": -37.836976299999996,
    "lng": 145.1832029},
    {
    "id": 182,
    "name": "Forest Hill Salvos",
    "address": "39 Mahoneys Road, Forest Hill VIC 3131",
    "opentime": "Mon - Fri 9.30-5.30\nSat 9.00-5.00\n",
    "lat": -37.835260999999996,
    "lng": 145.166621},
    {
    "id": 183,
    "name": "Uniting Op Shop",
    "address": "333a Canterbury Road, Forest Hill",
    "opentime": "Mon Closed\nTue - Sat 9.30am-1.00pm\nSun Closed\n",
    "lat": -37.834748,
    "lng": 145.178065},
    {
    "id": 184,
    "name": "Harrison Community Services Op Shop - Nunawading",
    "address": "293 Springfield Road, Nunawading VIC",
    "opentime": "Mon-Fri 10:00-4:00\nSat 10:00-1:00\n",
    "lat": -37.812468,
    "lng": 145.17197019999998},
    {
    "id": 185,
    "name": "Nunawading Salvos",
    "address": "132-142 Springvale Road, Nunawading VIC 3131",
    "opentime": "Mon - Sat 9.00-5.00\n",
    "lat": -37.819137299999994,
    "lng": 145.1754003},
    {
    "id": 186,
    "name": "ADRA Op Shop - Mitcham",
    "address": "37 Enterprise Way, Mitcham VIC",
    "opentime": "Mon-Thu 10am - 4pm; Fri 10am - 3pm\n",
    "lat": -37.8158039,
    "lng": 145.1932291},
    {
    "id": 187,
    "name": "All Sorts",
    "address": "18 Edward St, Mitcham, Victoria 3132",
    "opentime": "Tue - Thu 9:30am - 3.30pm\n",
    "lat": -37.8160037,
    "lng": 145.1912737},
    {
    "id": 188,
    "name": "Rotary Clothesline",
    "address": "432 Mitcham Rd Mitcham 3132",
    "opentime": "Mon - Fri 10:00 am to 4:00 pm\nSat 10:00 am to 12:30 pm\nSun Closed\n",
    "lat": -37.817279600000006,
    "lng": 145.1933788},
    {
    "id": 189,
    "name": "New Beginnings Op Shop - Vermont",
    "address": "8 Boronia Rd, Vermont VIC",
    "opentime": "Tue 9:30am - 2pm\nThu 9:30am - 2pm\nSat 10am - 1pm\n",
    "lat": -37.836577399999996,
    "lng": 145.1954366},
    {
    "id": 190,
    "name": "Harrison Community Services Op Shop - Vermont",
    "address": "6 Boronia Road, Vermont VIC",
    "opentime": "Mon-Fri 10:00-4:00\nSat 10:00-1:00\n",
    "lat": -37.836489799999995,
    "lng": 145.1953935},
    {
    "id": 191,
    "name": "Salvation Army - Ringwood",
    "address": "71 Maroondah Hwy, Ringwood VIC 3134",
    "opentime": "Mon - Fri 9.00-5.30\nSat 9.00-5.00\n",
    "lat": -37.8168893,
    "lng": 145.2219205},
    {
    "id": 192,
    "name": "Vinnies Ringwood",
    "address": "2/82 Maroondah Highway, Ringwood VIC 3134",
    "opentime": "Mon - Fri 9:00 AM - 5:00 PM\nSat 9:00 AM - 5:00 PM \nSun 10:00 AM - 5:00\n",
    "lat": -37.809771999999995,
    "lng": 145.239582},
    {
    "id": 193,
    "name": "Savers",
    "address": "79-83 Maroondah Hwy, Ringwood, VIC.",
    "opentime": "Mon - Wed 9am - 7pm\nThu - Fri 9am - 9pm\nSat 9am - 6pm\nSun 10am - 6pm\n",
    "lat": -37.816839200000004,
    "lng": 145.22287419999998},
    {
    "id": 194,
    "name": "Baby Direct Ringwood Store",
    "address": "160 Maroondah Highway, Ringwood, Victoria",
    "opentime": "Mon - Sun 10am-5pm\n",
    "lat": -37.81335120000001,
    "lng": 145.23468180000003},
    {
    "id": 195,
    "name": "Heathmont Inter Church Help OpShop",
    "address": "136 Canterbury Road, Heathmont, Victoria 3135",
    "opentime": "Mon - Fri 10am-4pm\nSat 9am - 12pm\nSun Closed\n",
    "lat": -37.8282557,
    "lng": 145.2468628},
    {
    "id": 196,
    "name": "Villa Opportunity Shop",
    "address": "184 Canterbury Rd, Heathmont",
    "opentime": "Mon - Fri 10am-4pm\nSat 9am-4pm\n",
    "lat": -37.8293523,
    "lng": 145.24584230000002},
    {
    "id": 197,
    "name": "SJOG Burnt Bridge",
    "address": "Shop 10, Burnt Bridge Shopping Centre, 434 Maroondah Hwy, Ringwood",
    "opentime": "Mon - Fri 9am - 4pm\nSat 9am - 1pm\n",
    "lat": -37.7969391,
    "lng": 145.25658719999998},
    {
    "id": 198,
    "name": "EACH Opportunity Plus",
    "address": "77 Bedford Road RINGWOOD",
    "opentime": "Mon 9:00am - 4.000m\nTue - Fri 9:00am - 4:00pm\nSat 9:00am - 1:00pm\nSun CLOSED\n",
    "lat": -37.818603,
    "lng": 145.243217},
    {
    "id": 199,
    "name": "Vinnies Croydon",
    "address": "38-42 Main Street, Croydon VIC 3136",
    "opentime": "Mon - Sat 9:00 AM - 5:00 PM\n",
    "lat": -37.794731,
    "lng": 145.282408},
    {
    "id": 200,
    "name": "Red Cross - Croydon",
    "address": "114 Main St, Croydon VIC",
    "opentime": "Mon - Sat 9am - 5 pm\nSun closed\n",
    "lat": -37.7965958,
    "lng": 145.28126640000002},
    {
    "id": 201,
    "name": "Croydon Salvos",
    "address": "104 Main Street, Croydon VIC 3136",
    "opentime": "Mon - Fri 9.00-5.30\nSat 9.00-5.00\n",
    "lat": -37.79639210000001,
    "lng": 145.2813413},
    {
    "id": 202,
    "name": "SJOG Croydon",
    "address": "33 The Mall, Croydon South",
    "opentime": "Mon - Fri 9:30am - 4pm\nSat 9:30am - 12:30pm\n",
    "lat": -37.81174559999999,
    "lng": 145.27015590000002},
    {
    "id": 203,
    "name": "A Peace of Heaven Community Centre Op Shop",
    "address": "Rear building of 6-18 Lincoln road , Croydon Victoria",
    "opentime": "Thu 10am - 4pm\nFri  10am - 4pm\n",
    "lat": -37.7838019,
    "lng": 145.2849008},
    {
    "id": 204,
    "name": "Brotherhood Kilsyth",
    "address": "235 Colchester Road, Kilsyth",
    "opentime": "Mon - Fri 9.30am to 5pm\nSat 9 am to 5 pm\n",
    "lat": -37.8220159,
    "lng": 145.30471599999998},
    {
    "id": 205,
    "name": "Vinnies",
    "address": "Vinnie's,  Colchester Rd & Canterbury Rd Intersection",
    "opentime": "Unknown\n",
    "lat": -37.821762,
    "lng": 145.30493959999998},
    {
    "id": 206,
    "name": "ReStore - Habitat for Humanity ",
    "address": "Factory 2, 128 Canterbury Road, Kilsyth South VICTORIA",
    "opentime": "Mon - Fri 9am - 4.30pm\nSat 10am - 1pm\n",
    "lat": -37.82125,
    "lng": 145.308483},
    {
    "id": 207,
    "name": "Kilsyth Salvos",
    "address": "239 Colchester Road, Kilsyth VIC 3137",
    "opentime": "Mon - Fri 9.00-5.30\nSat 9.00-5.00\nSun 11.00-3.00\n",
    "lat": -37.822358,
    "lng": 145.30453899999998},
    {
    "id": 208,
    "name": " Lions club Op shop",
    "address": "50 Manchester Rd Mooroolbark 3138",
    "opentime": "Unknown\n",
    "lat": -37.7859566,
    "lng": 145.3111739},
    {
    "id": 209,
    "name": "Secondhand Heaven - Mooroolbark",
    "address": "224 Hull Road, Mooroolbark VIC",
    "opentime": "Mon 12:30 - 3:00\nTue - Wed 10:00 - 3:00\nThu - Sun Closed\n",
    "lat": -37.788154999999996,
    "lng": 145.3135283},
    {
    "id": 210,
    "name": "Salvation army family store",
    "address": "111/91 Brice Avenue, Mooroolbark VIC 3138",
    "opentime": "Unknown\n",
    "lat": -37.785377000000004,
    "lng": 145.315766},
    {
    "id": 211,
    "name": "St John of God Accord - Wandin",
    "address": "6 Union Road, Wandin VIC",
    "opentime": "Mon-Fri 9:30-4:00\nSat 9:30-12:00\n",
    "lat": -37.781133399999995,
    "lng": 145.42703410000001},
    {
    "id": 212,
    "name": "Lilydale C I C Op Shop - Lilydale",
    "address": "12 William St, Lilydale VIC",
    "opentime": "Unknown\n",
    "lat": -37.7835379,
    "lng": 145.355563},
    {
    "id": 213,
    "name": "Lilydale Salvos",
    "address": "230 - 232 Main Street, Lilydale VIC 3140",
    "opentime": "Mon - Fri 9.30-5.30\nSat 9.00-1.00\n",
    "lat": -37.758007,
    "lng": 145.35120700000002},
    {
    "id": 214,
    "name": "CIS Yarra Ranges Op-shop",
    "address": "19 Hutchinson Street, Lilydale",
    "opentime": "Mon - Fri 10-4\nSat 10-1\nSun closed\n",
    "lat": -37.758342,
    "lng": 145.34814599999999},
    {
    "id": 215,
    "name": "Golden Opportunity Shop - Lilydale",
    "address": "5/10 William Street, Lilydale VIC",
    "opentime": "Sat 10:00-12:00\n",
    "lat": -37.758,
    "lng": 145.35},
    {
    "id": 216,
    "name": "Vinnies Lilydale",
    "address": "250 Main Street, Lilydale VIC 3140",
    "opentime": "Mon - Fri 9:00 AM - 5:00 PM\nSat 9:00 AM - 2:00 PM\nSun Closed\n",
    "lat": -37.757963000000004,
    "lng": 145.351935},
    {
    "id": 217,
    "name": "The Mustard Tree",
    "address": "3/28 John Street Lilydale VIC 3140",
    "opentime": "Mon - Fri 10-3\nSat 10-1\n",
    "lat": -37.758204,
    "lng": 145.346484},
    {
    "id": 218,
    "name": "The Treasure Chest",
    "address": "24B John Street, Lilydale VIC",
    "opentime": "Mon - Fri 9:00am - 4:30pm\nSat 10:00am -1:00pm\n",
    "lat": -37.758225200000005,
    "lng": 145.3456998},
    {
    "id": 219,
    "name": "Toorak Opportunity Shop - Toorak",
    "address": "143 Canterbury Rd, Toorak VIC",
    "opentime": "Unknown\n",
    "lat": -37.842198700000004,
    "lng": 145.01038219999998},
    {
    "id": 220,
    "name": "mecwacare Malvern Op Shop",
    "address": "136 Wattletree Rd, Malvern VIC",
    "opentime": "Mon to Fri 10am - 5pm\nSat 10am - 4pm\n",
    "lat": -37.8625911,
    "lng": 145.028905},
    {
    "id": 221,
    "name": "Malvern Salvos",
    "address": "234 Glenferrie Road, Malvern VIC 3144",
    "opentime": "Mon - Fri 9.00-5.30\nSat 9.00-5.00\nSun 12-4 for donations only\n",
    "lat": -37.858382,
    "lng": 145.029217},
    {
    "id": 222,
    "name": "Vinnies Malvern",
    "address": "29-31 Glenferrie Road, Malvern VIC 3144",
    "opentime": "Mon - Fri 9:00 AM - 6:00 PM\nSat 9:00 AM - 5:00 PM\nSun 10:00 AM - 4:00 \n",
    "lat": -37.8652,
    "lng": 145.02750569999998},
    {
    "id": 223,
    "name": "St James Op Shop - Tooronga",
    "address": "1378 Malvern Road, Tooronga VIC",
    "opentime": "Mon - Fri 10am-4pm\nSat 10am-12pm\n",
    "lat": -37.853311,
    "lng": 145.041775},
    {
    "id": 224,
    "name": "MS Malvern ",
    "address": "207 Glenferrie Road Malvern VIC 3144",
    "opentime": "Mon - Fri 9:30am - 5:00pm\nSat 9:00am - 3:00pm\n",
    "lat": -37.859202,
    "lng": 145.02865},
    {
    "id": 225,
    "name": "mecwacare East Malvern Op Shop",
    "address": "299 Waverley Rd, East Malvern VIC",
    "opentime": "Mon-Fri 10:00-4:30\nSat 10:00-1:00\n",
    "lat": -37.8770741,
    "lng": 145.0585435},
    {
    "id": 226,
    "name": "East Malvern Salvos Thrift Shop",
    "address": "305 Waverley Road East Malvern",
    "opentime": "Mon - Tue 9.30 -4.30\nWed 9.30 - 4.30\nThu - Fri 9.30 - 5.00\nSat 9.30 -1.00\nSun closed\n",
    "lat": -37.877085,
    "lng": 145.058722},
    {
    "id": 227,
    "name": "Camberwell Salvos Thrift Shop",
    "address": "401 -403 High Street Ashburton",
    "opentime": "Mon - Fri 8.30 -4.30\nSat 9.00 -1.00\nSun closed\n",
    "lat": -37.86463699999999,
    "lng": 145.092151},
    {
    "id": 228,
    "name": "Vinnies Ashburton",
    "address": "386 Warrigal Rd Ashburton",
    "opentime": "Mon - Sat 9:00 AM - 5:00 PM\nSun 10:00am - 4:00PM\n",
    "lat": -37.8644997,
    "lng": 145.09265190000002},
    {
    "id": 229,
    "name": "Ashburton Salvos",
    "address": "203 High Street, Ashburton VIC 3147",
    "opentime": "Mon - Fri 9.30-5.30\nSat 9.00-5.00\n",
    "lat": -37.8628221,
    "lng": 145.0767645},
    {
    "id": 230,
    "name": "Ashy Op Shop",
    "address": "285b High St, Ashburton VIC",
    "opentime": "Mon - Fri 10:00am-4:30pm\nSat 9:30am-4:00pm\n",
    "lat": -37.8631352,
    "lng": 145.0810619},
    {
    "id": 231,
    "name": "Amaroo Op Shop - Chadstone",
    "address": "34 Amaroo St, Chadstone VIC",
    "opentime": "Unknown\n",
    "lat": -37.8791283,
    "lng": 145.0996971},
    {
    "id": 232,
    "name": "Lions Club Of Waverley Inc Opportunity Shop - Mt Waverley",
    "address": "55 Wadham Pde, Mt Waverley VIC",
    "opentime": "Mon - Fri 9.30am - 4pm\nSat 9.30am - 1pm\nSun closed\n",
    "lat": -37.874688,
    "lng": 145.126545},
    {
    "id": 233,
    "name": "Vinnies Pinewood",
    "address": "1/33-39 Centreway, Pinewood VIC 3149",
    "opentime": "Mon 10:00 AM - 4:45PM\nTue - Thu 10:00 AM - 4:45 PM\nFri 10:00 AM - 4:45PM\nSat 10:00 AM - 12:45PM\nSun Closed\n",
    "lat": -37.891428999999995,
    "lng": 145.143072},
    {
    "id": 234,
    "name": "Brotherhood Mount Waverley",
    "address": "11 Hamilton Walk, Mount Waverley",
    "opentime": "Mon - Fri 10am - 4pm\nSat 10 am to 12 pm \n",
    "lat": -37.87579279999999,
    "lng": 145.1275339},
    {
    "id": 235,
    "name": "Mount Waverley Salvos",
    "address": "Shop 3, 9 - 11 Hamilton Place, Mount Waverley VIC 3149",
    "opentime": "Mon - Fri 9.30-5.30\nSat 9.00-5.00\n",
    "lat": -37.87579279999999,
    "lng": 145.1275339},
    {
    "id": 236,
    "name": "Glen Waverley Salvos",
    "address": "251 Springvale Road, Glen Waverley VIC 3150",
    "opentime": "Mon - Fri 9.00-5.30\nSat 9.00-5.00\n",
    "lat": -37.878878,
    "lng": 145.165736},
    {
    "id": 237,
    "name": "MS Community Shop",
    "address": "96 Kingsway, Glen Waverley, 3150",
    "opentime": "Mon - Fri 9:30am - 5:00pm\nSat 10:00am - 1:00pm\n",
    "lat": -37.8814395,
    "lng": 145.1638116},
    {
    "id": 238,
    "name": "Mulgrave Salvos",
    "address": "204 Brandon Park Drive, Wheelers Hill VIC 3170",
    "opentime": "Mon - Fri 9.00-5.30\nSat 9.00-5.00\n",
    "lat": -37.9164916,
    "lng": 145.1770218},
    {
    "id": 239,
    "name": "RSPCA",
    "address": "Shops 9 & 10, 2-8 Burwood Hwy,Burwood East",
    "opentime": "Unknown\n",
    "lat": -37.8526487,
    "lng": 145.1326833},
    {
    "id": 240,
    "name": "Villa Opportunity Shop",
    "address": "Shop 9, Wantirna Mall, 348 Mountain Hwy, Wantirna",
    "opentime": "Mon - Sat 9am-4pm\n",
    "lat": -37.847705700000006,
    "lng": 145.2318584},
    {
    "id": 241,
    "name": "Hunter Gatherer",
    "address": "Knox City Shopping Centre, Cnr Burwood Hwy & Stud Road, Wantirna South",
    "opentime": "Mon - Wed 9am - 5:30pm\nThu - Fri 9am - 7pm\nSat 9am - 5pm\nSun 10am - 5pm\n",
    "lat": -37.868888899999995,
    "lng": 145.2411111},
    {
    "id": 242,
    "name": "Bayswater Salvos",
    "address": "716 Mountain Hwy Bayswater VIC 3153",
    "opentime": "Mon - Sat 9:00AM-5:00PM\nSun CLOSED\n",
    "lat": -37.841446000000005,
    "lng": 145.26550600000002},
    {
    "id": 243,
    "name": "Vinnies Bayswater",
    "address": "700 Mountain Highway, Bayswater VIC 3153",
    "opentime": "Mon - Sat 9:00 AM - 5:00 PM\nSun 10:00 AM-4:00PM\n",
    "lat": -37.842136700000005,
    "lng": 145.2649862},
    {
    "id": 244,
    "name": "Villa Opportunity Shop",
    "address": "Shop 6, 14f Station Street, Bayswater, 3153",
    "opentime": "Mon - Fri 10am-4pm\nSat 10am-1pm\n",
    "lat": -37.8417593,
    "lng": 145.26652969999998},
    {
    "id": 245,
    "name": "Knox Opportunity Shop - Bayswater",
    "address": "U3/29 Macauley Pl, Bayswater VIC",
    "opentime": "Mon - Fri 10am - 3pm\nSat 9am - 12pm\nSun CLOSED\n",
    "lat": -37.8423453,
    "lng": 145.2670353},
    {
    "id": 246,
    "name": "RSPCA Op Shop",
    "address": "17 Dorset Square, Boronia Vic 3151",
    "opentime": "Mon - Fri Monday-Friday 10am-4.30pm\nSat Saturday 10am-2.00pm\n",
    "lat": -37.86141569999999,
    "lng": 145.2862055},
    {
    "id": 247,
    "name": "boronia thrift shop",
    "address": "2 liverpool road. boronia victoria 3155",
    "opentime": "Tue - Wed 10.00am - 4.30\nThu - Fri 10.00 am - 4.30\nSat 10.00 am - 2.00\n",
    "lat": -37.848822399999996,
    "lng": 145.3092917},
    {
    "id": 248,
    "name": "Boronia Salvos",
    "address": "274 Dorset Road, Boronia VIC 3155",
    "opentime": "Mon - Fri 9.00-5.30\nSat 9.00-5.00\n",
    "lat": -37.8590935,
    "lng": 145.2861552},
    {
    "id": 249,
    "name": "Community Op-Shop",
    "address": "18 Alpine Street, Ferntree Gully",
    "opentime": "Mon - Fri 9-5\nSat 9-12\n",
    "lat": -37.8830592,
    "lng": 145.29673490000002},
    {
    "id": 250,
    "name": "Ferntree Gully Community store",
    "address": "1174 Burwood Hwy, Ferntree Gully",
    "opentime": "Mon - Fri 10am-4pm\nSat 10-am-1pm\nSun closed\n",
    "lat": -37.8937996,
    "lng": 145.3067894},
    {
    "id": 251,
    "name": "Hills Op Shop",
    "address": "18 Alpine Street Ferntree Gully",
    "opentime": "Mon - Fri 9:30-4:30\nSat 9:30-1:00\n",
    "lat": -37.8830592,
    "lng": 145.29673490000002},
    {
    "id": 252,
    "name": "Villa Opportunity Shop",
    "address": "Mountain Gate Shopping Centre, Shop 16, 1880 Ferntree Gully Road, Ferntree Gully",
    "opentime": "Mon - Fri 10am-4.00pm\nSat 10.00am-1.00pm\n",
    "lat": -37.8835655,
    "lng": 145.2765436},
    {
    "id": 253,
    "name": "Angliss Hospital FTG Auxiliaries",
    "address": "Shop 4, 101 Station St, Ferntree Gully, VIC",
    "opentime": "Unknown\n",
    "lat": -37.882735,
    "lng": 145.2947446},
    {
    "id": 254,
    "name": "Vinnies Ferntree Gully",
    "address": "32 Forest Road, Ferntree Gully VIC 3156",
    "opentime": "Mon - Sat 9:00 AM - 5:00 PM\nSun Closed\n",
    "lat": -37.883655600000004,
    "lng": 145.29709240000003},
    {
    "id": 255,
    "name": "Ferntree Gully Salvos",
    "address": "1841 Ferntree Gully Road, Mountain Gate VIC 3156",
    "opentime": "Mon - Fri 9.00-5.30\nSat 9.00-5.00\n",
    "lat": -37.8833608,
    "lng": 145.27106730000003},
    {
    "id": 256,
    "name": "Tamminya House op shop",
    "address": "7 Rose Street, upper Ferntree Gully",
    "opentime": "Mon - Tue 9-3:30\nWed Closed\nThu - Fri 9-3:30\nSat 9-2\nSun Closed\n",
    "lat": -37.894604,
    "lng": 145.310442},
    {
    "id": 257,
    "name": "Rose Street Op shop",
    "address": "7 Rose Street, Ferntree Gully, Victoria 3156",
    "opentime": "Mon - Fri 9-4\nSat 9-2\nSun Not open\n",
    "lat": -37.894604,
    "lng": 145.310442},
    {
    "id": 258,
    "name": "Treasure Shop",
    "address": "2 Morris Rd Upwey 3158",
    "opentime": "Sat 9am - 1pm\n",
    "lat": -37.9034504,
    "lng": 145.32940559999997},
    {
    "id": 259,
    "name": "Belgrave Op Shop - Belgrave",
    "address": "1672 Burwood Highway, Belgrave VIC",
    "opentime": "Unknown\n",
    "lat": -37.90944520000001,
    "lng": 145.3543832},
    {
    "id": 260,
    "name": "St Martin's Community Shop - Belgrave",
    "address": "78 Colby Drive, Belgrave VIC",
    "opentime": "Mon - Thu 9am - 3.45pm\nFri - Sat 9am - 12:30pm\n",
    "lat": -37.9261974,
    "lng": 145.35414550000002},
    {
    "id": 261,
    "name": "Tecoma Op Shop - Tecoma",
    "address": "1569 Burwood Hwy, Tecoma VIC",
    "opentime": "Mon - Fri 9am - 4pm\nSat 9am - 1pm\nSun closed\n",
    "lat": -37.9068914,
    "lng": 145.346215},
    {
    "id": 262,
    "name": "PWP op shop",
    "address": "2/1535 Burwood Hwy Tecoma ",
    "opentime": "Mon - Fri 9.30-4.30\nSat 10-4.30\nSun 11-4.30\n",
    "lat": -37.906416,
    "lng": 145.343828},
    {
    "id": 263,
    "name": "Preloved",
    "address": "1539 burwood hwy",
    "opentime": "Mon 10-5\nTue - Thu 9-5\nFri - Sat 10-5\nSun 11-4\n",
    "lat": -37.9065089,
    "lng": 145.34427340000002},
    {
    "id": 264,
    "name": "Salvos ",
    "address": "1535 Burwood Hwy Tecoma",
    "opentime": "Mon - Fri 9am - 5pm\nSat 9am-5pm\nSun closed\n",
    "lat": -37.906416,
    "lng": 145.343828},
    {
    "id": 265,
    "name": "Red Cross - Carnegie",
    "address": "22 Koornang Rd, Carnegie VIC",
    "opentime": "Mon - Sat 9:30-4:30\n",
    "lat": -37.884744,
    "lng": 145.058089},
    {
    "id": 266,
    "name": "Brotherhood Glen Huntly",
    "address": "1143 Glen huntly Road, Glen Huntly",
    "opentime": "Mon - Fri 9:30am - 4pm\nSat 10 am to 1 pm\n",
    "lat": -37.889216299999994,
    "lng": 145.0416936},
    {
    "id": 267,
    "name": "Oakleigh Centre Op Shop - Hughesdale",
    "address": "62 Poath Rd, Hughesdale VIC",
    "opentime": "Unknown\n",
    "lat": -37.89341829999999,
    "lng": 145.0772384},
    {
    "id": 268,
    "name": "Lions Opportunity Shop",
    "address": "461 Neerim Road, Murrumbeena",
    "opentime": "Mon - Fri 9.30am - 4.00pm\nSat 9.30am-12.30pm\nSun CLOSED\n",
    "lat": -37.889889600000004,
    "lng": 145.06724430000003},
    {
    "id": 269,
    "name": "Op shop - Bentleigh",
    "address": "701 Centre Rd, Bentleigh VIC",
    "opentime": "Unknown\n",
    "lat": -37.920463899999994,
    "lng": 145.0550523},
    {
    "id": 270,
    "name": "AAPS - East Bentleigh",
    "address": "693 Centre Road, East Bentleigh 3165",
    "opentime": "Unknown\n",
    "lat": -37.920432,
    "lng": 145.05482759999998},
    {
    "id": 271,
    "name": "Vinnies Oakleigh",
    "address": "20 Crewe Road, Hughesdale VIC 3166",
    "opentime": "Mon - Sat 9:00 AM - 5:00 PM\nSun  9:00 AM - 4:00 PM\n",
    "lat": -37.896229299999995,
    "lng": 145.087029},
    {
    "id": 272,
    "name": "Oakleigh Centre Op Shop - Huntingdale",
    "address": "290b Huntingdale Rd, Huntingdale VIC",
    "opentime": "Mon - Fri 9:30am - 4pm\nSat 10am - 3pm\n",
    "lat": -37.909786,
    "lng": 145.104029},
    {
    "id": 273,
    "name": "Temcare - Oakleigh",
    "address": "5A Station Street, Oakleigh VIC",
    "opentime": "Unknown\n",
    "lat": -37.898913,
    "lng": 145.088514},
    {
    "id": 274,
    "name": "Clayton Salvos",
    "address": "286A Clayton Road, Clayton VIC 3168",
    "opentime": "Mon - Fri 9.30-5.30\nSat 10.00-5.00\nSun Closed\n",
    "lat": -37.925287,
    "lng": 145.1199312},
    {
    "id": 275,
    "name": "Vinnies Clayton",
    "address": "2/370 Clayton Road, Clayton VIC 3168",
    "opentime": "Mon - Wed 9:00 AM - 4:30 PM\nThu - Fri 9:00 AM - 5:00 PM\nSat 10:00AM - 1:00PM\n",
    "lat": -37.92891229999999,
    "lng": 145.11916230000003},
    {
    "id": 276,
    "name": "Springvale Salvos",
    "address": "Shop 3/819-823 Princes Highway, Springvale VIC 3171",
    "opentime": "Mon - Fri 9.30-5.30\nSat 9.00-5.00\n",
    "lat": -37.9344011,
    "lng": 145.1573877},
    {
    "id": 277,
    "name": "Vinnies Springvale",
    "address": "119-123 Springvale Road , Springvale VIC 3171",
    "opentime": "Mon - Wed 9:00 AM - 5:00 PM\nThu - Fri 9:00 AM - 7:00 PM\nSat 9:00 AM - 5:00PM\n",
    "lat": -37.942334,
    "lng": 145.154336},
    {
    "id": 278,
    "name": "Keysborough Salvos",
    "address": "Unit 3A Fiveways Boulevard, Keysborough VIC 3173",
    "opentime": "Mon - Fri 9.00-5.00\nSat 9.00-5.00\n",
    "lat": -37.991168,
    "lng": 145.151787},
    {
    "id": 279,
    "name": "St Aidan's Opportunity Shop - Noble Park",
    "address": "1A Buckley St, Noble Park VIC",
    "opentime": "Mon - Fri 9:30am - 3:30pm\nSat 9:00am - 1:00pm\nSun Closed\n",
    "lat": -37.966373,
    "lng": 145.17461},
    {
    "id": 280,
    "name": "Ermha Op Shop",
    "address": "13 Buckley Street, Noble Park 3174.",
    "opentime": "Mon - Fri 9.30am - 4pm\nSat 9.30am - 12.30pm\n",
    "lat": -37.9668348,
    "lng": 145.17461310000002},
    {
    "id": 281,
    "name": "Ermha op shop ",
    "address": "13 Buckley St Noble Park",
    "opentime": "Mon - Fri  9.30 am - 4pm\nSat 9.30am - 12.30pm\n",
    "lat": -37.9668348,
    "lng": 145.17461310000002},
    {
    "id": 282,
    "name": "Noble Park Thrift Shop",
    "address": "14-16 Buckley st noble park",
    "opentime": "Mon Closed\nTue - Fri 10am - 2.30pm\nSat - Sun Closed\n",
    "lat": -37.966471000000006,
    "lng": 145.17424},
    {
    "id": 283,
    "name": "Noble Park Salvos",
    "address": "400 Princess Highway, Noble Park VIC 3174",
    "opentime": "Mon - Fri 9.30-5.30\nSat 9.00-5.00\n",
    "lat": -33.9916584,
    "lng": 151.1144113},
    {
    "id": 284,
    "name": "Jens Craft OpShop",
    "address": "8 Birch Ave, Dandenong North VIC 3175",
    "opentime": "Wed 9am - 2pm\nThu - Fri 9am - 4pm\nSat last Sat of month 9-12.\n",
    "lat": -37.963908,
    "lng": 145.204768},
    {
    "id": 285,
    "name": "Dandenong South Salvos",
    "address": "1/111-115 Lonsdale Street, Dandenong VIC 3175",
    "opentime": "Mon - Sat 9.00-5.00\n",
    "lat": -37.9946172,
    "lng": 145.2159944},
    {
    "id": 286,
    "name": "Dandenong and district benelovent society",
    "address": "305 Thomas Street, Dandenong",
    "opentime": "Mon - Thu 9am - 3pm\nFri 9am - 2pm\n",
    "lat": -37.985289,
    "lng": 145.21216},
    {
    "id": 287,
    "name": "Australian Red Cross ",
    "address": "248 Lonsdale Street, Dandenong 3175",
    "opentime": "Mon - Sat  9.00am-5.00pm\nSun Closed\n",
    "lat": -37.986336,
    "lng": 145.214628},
    {
    "id": 288,
    "name": "Uniting care Op shop",
    "address": "2 / 121 Lonsdale Street Dandenong",
    "opentime": "Tue - Sat 9am - 5pm \n",
    "lat": -37.994165,
    "lng": 145.21552},
    {
    "id": 289,
    "name": "Vinnies Dandenong",
    "address": "119-123 Lonsdale Street, Dandenong VIC 3175",
    "opentime": "Mon - Fri 9:00 AM - 5:00 PM\nSat 9:00 AM - 5:00 PM \nSun 10:00 AM - 4:00PM\n",
    "lat": -37.9940641,
    "lng": 145.21547769999998},
    {
    "id": 290,
    "name": "CoA Op Shop",
    "address": "18 Mason Street, Dandenong VIC 3175",
    "opentime": "Mon - Fri 9:00 am - 5:00 pm\nSat - Sun Closed\n",
    "lat": -37.9873938,
    "lng": 145.2113785},
    {
    "id": 291,
    "name": "Save The Children - Dandenong",
    "address": "119-123 Lonsdale St, Dandenong",
    "opentime": "Mon - Fri 9am - 5pm\nSat 10am - 5pm\n",
    "lat": -37.9940641,
    "lng": 145.21547769999998},
    {
    "id": 292,
    "name": "Avocare Community Shop",
    "address": "46 Menzies Ave, North Dandenong",
    "opentime": "Mon - Tue 9:30 am - 3:30 pm\nWed - Fri 9:30 am - 3:30pm\nSat 9:00 am - 3:00 pm\nSun Closed\n",
    "lat": -37.966295200000005,
    "lng": 145.20914969999998},
    {
    "id": 293,
    "name": "AAPS Shelter OP Shop Dandenong South",
    "address": "1132 Bangholme Rd, Dandenong South 3175",
    "opentime": "Mon Closed\nTue - Sat 10am-2.30pm\nSun Closed\n",
    "lat": -38.0371911,
    "lng": 145.1939596},
    {
    "id": 294,
    "name": "The Salvation Army Thrift Shop Doveton",
    "address": "1A Frawley Road Doveton, 3177",
    "opentime": "Mon - Fri 9.30am-4pm\nSat - Sun Closed\n",
    "lat": -37.994986299999994,
    "lng": 145.2443514},
    {
    "id": 295,
    "name": "Rowville Salvos",
    "address": "Showroom 3/5 Fulham Road, Rowville VIC 3178",
    "opentime": "Mon - Fri 9.00-5.30\nSat 9.00-5.00\n",
    "lat": -37.91736029999999,
    "lng": 145.23653769999999},
    {
    "id": 296,
    "name": "Uniting Op Shop - Scoresby",
    "address": "4 Darryl Street, Scoresby VIC",
    "opentime": "Mon-Fri 10:00-4:00\nSat 10:00-1:00\n",
    "lat": -37.898217700000004,
    "lng": 145.230124},
    {
    "id": 297,
    "name": "Storehouse Thrift",
    "address": "77 Chapel St Windsor",
    "opentime": "Mon - Fri 10:00am - 5:00pm\nSat 10:00am - 5:00pm \nSun 10:00am - 5:00pm\n",
    "lat": -37.8549102,
    "lng": 144.9924875},
    {
    "id": 298,
    "name": "Prahan Red Cross",
    "address": "188 Commercial Rd\tPrahran VIC 3181",
    "opentime": "Mon - Thu 9:30am - 5:30pm\nFri 9:30am - 6:00pm\nSat 9:30am - 5:30pm\nSun 12:00am - 5:00pm\n",
    "lat": -37.846821000000006,
    "lng": 144.992499},
    {
    "id": 299,
    "name": "Uniting Op Shop - Prahran",
    "address": "211 Chapel St, Prahran VIC",
    "opentime": "Mon - Sat 10.00 am - 4.30pm\nSun 12.00pm - 4.00pm\n",
    "lat": -37.85106270000001,
    "lng": 144.9932687},
    {
    "id": 300,
    "name": "Sacred Heart Mission Op Shop Chapel Street Prahran",
    "address": "262 Chapel Street, Prahran",
    "opentime": "Mon - Sat 10am-6pm\nSun 10.30am-5.30pm\n",
    "lat": -37.8495454,
    "lng": 144.9939208},
    {
    "id": 301,
    "name": "Save The Children Windsor ",
    "address": "59-61 Chapel Street, Windsor VIC 3181",
    "opentime": "Mon - Sat 10am-5pm\nSun CLOSED\n",
    "lat": -37.85530809999999,
    "lng": 144.9925019},
    {
    "id": 302,
    "name": "The Shop of Op",
    "address": "110 Chapel Street Windsor, Victoria",
    "opentime": "Mon - Sat 10:00 am - 6:00 pm\nSun 11:00 am - 5:00 pm\n",
    "lat": -37.854283,
    "lng": 144.99321909999998},
    {
    "id": 303,
    "name": "Windsor Salvos",
    "address": "111 - 115 Chapel Street, Windsor, Victoria",
    "opentime": "Mon - Fri 10am - 7pm\nSat 10am - 6pm\n",
    "lat": -37.8539107,
    "lng": 144.9926596},
    {
    "id": 304,
    "name": "Storehouse - Windsor",
    "address": "77 Chapel St, Windsor VIC",
    "opentime": "Mon - Sun 10AM-5PM\n",
    "lat": -37.8549102,
    "lng": 144.9924875},
    {
    "id": 305,
    "name": "Sacred Heart Mission,Prahran Op Shop",
    "address": "86/88 Chapel Street, Prahran",
    "opentime": "Mon - Sat 10am - 6pm\nSun 10:30am - 5:30pm\n",
    "lat": -37.854949,
    "lng": 144.992995},
    {
    "id": 306,
    "name": "mecwacare Windsor Op Shop",
    "address": "52 Chapel St, Windsor VIC",
    "opentime": "Mon - Fri 10-5\nSat 11-4\nSun 11:30-3\n",
    "lat": -37.8559245,
    "lng": 144.99278869999998},
    {
    "id": 307,
    "name": "St Kilda Salvos",
    "address": "116 Carlisle Street, St Kilda VIC 3182",
    "opentime": "Mon - Wed 9.00-5.30\nThu - Fri 9.00-7:00\nSat 9.00-5.00\n",
    "lat": -37.86783399999999,
    "lng": 144.98760900000002},
    {
    "id": 308,
    "name": "Sacred Heart Mission, St Kilda Op Shop",
    "address": "87a Grey Street, St Kilda",
    "opentime": "Mon - Sat 9.30am - 4.30pm\nSun 10am - 5pm\n",
    "lat": -37.8628529,
    "lng": 144.9802651},
    {
    "id": 309,
    "name": "Greeves St. Recycled",
    "address": "12-16 Belford Street, St Kilda, VIC",
    "opentime": "Mon - Sat 10:30 - 5:00\nSun 12pm - 4pm\n",
    "lat": -37.8677836,
    "lng": 144.98027140000002},
    {
    "id": 310,
    "name": "Sacred Heart Mission Op Shops Chapel Street Prahran",
    "address": "87a Grey St St Kilda",
    "opentime": "Mon - Sat 10am-6pm\nSun 10.30am-5.30pm\n",
    "lat": -37.8628529,
    "lng": 144.9802651},
    {
    "id": 311,
    "name": "Frocks and Slacks",
    "address": "Barkly St",
    "opentime": "Unknown\n",
    "lat": -37.869640600000004,
    "lng": 144.98074509999998},
    {
    "id": 312,
    "name": "Inkerman Street Opshop",
    "address": "415 Inkerman Street East St Kilda",
    "opentime": "Mon - Sun 10am to 5pm\n",
    "lat": -37.866601,
    "lng": 144.999818},
    {
    "id": 313,
    "name": "Sacred Heart Mission - East St Kilda",
    "address": "415 Inkerman Street, East St Kilda VIC",
    "opentime": "Mon - Thu 10am - 5pm\nFri 10am- 5pm\nSat - Sun 10am - 5pm\n",
    "lat": -37.866601,
    "lng": 144.999818},
    {
    "id": 314,
    "name": "Vinnies",
    "address": "482A Glen Huntly Rd Elsternwick vic",
    "opentime": "Mon - Sat 9-5\nSun 10-4\n",
    "lat": -37.885378,
    "lng": 145.00811000000002},
    {
    "id": 315,
    "name": "Posh Opp Shop - Glen Huntly",
    "address": "484 Glenhuntly Rd, Elsternwick",
    "opentime": "Mon - Fri 10am-4.30pm\nSat 10:00-3:00\nSun Closed\n",
    "lat": -37.885397999999995,
    "lng": 145.008258},
    {
    "id": 316,
    "name": "Pop Up Op Shop",
    "address": "411 Glen Huntley Road, Elsternwick ",
    "opentime": "Unknown\n",
    "lat": -37.884765,
    "lng": 145.00544299999999},
    {
    "id": 317,
    "name": "Sacred Heart Mission, Elsternwick Op Shop",
    "address": "486 Glenhuntly Road Elsternwick",
    "opentime": "Mon - Sun 10am - 5pm\n",
    "lat": -37.8854936,
    "lng": 145.00839130000003},
    {
    "id": 318,
    "name": "St John's Uniting Church Op Shop",
    "address": "302 Glen Huntly Rd, Elsternwick VIC",
    "opentime": "Mon - Sat 9:00-6:00\n",
    "lat": -37.884631799999994,
    "lng": 145.0021926},
    {
    "id": 319,
    "name": "Elsternwick Red Cross",
    "address": "402 Glenhuntly Rd, Elsternwick VIC 3185",
    "opentime": "Mon - Sat 9:00am - 5:00pm\nSun 11:00am - 3:00pm\n",
    "lat": -37.885032,
    "lng": 145.005243},
    {
    "id": 320,
    "name": "Elsternwick Salvos",
    "address": "366 Glenhuntly Road, Elsternwick VIC 3185",
    "opentime": "Mon - Fri 9.00-5.30\nSat 9.00-5.00\n",
    "lat": -37.8848756,
    "lng": 145.0039856},
    {
    "id": 321,
    "name": "Sacred Heart Mission - Elsternwick",
    "address": "1/486 Glenhuntly Road, Elsternwick",
    "opentime": "Mon - Sun 10am to 5pm\n",
    "lat": -37.8854936,
    "lng": 145.00839130000003},
    {
    "id": 322,
    "name": "St Stephen's Op Shop ",
    "address": "128 Martin Street Gardenvale",
    "opentime": "Mon 9.00am to 3.00pm\nTue 9.00am to 4.00pm\nWed 10.30am to 4.00pm\nThu - Fri 9.00am to 4.00pm\nSat 10.00am to 1.00pm\nSun Closed\n",
    "lat": -37.89757300000001,
    "lng": 145.0034197},
    {
    "id": 323,
    "name": "Biccy's Op Shop - Brighton",
    "address": "148 Church St, Brighton VIC",
    "opentime": "Unknown\n",
    "lat": -37.9163028,
    "lng": 144.9967591},
    {
    "id": 324,
    "name": "St Andrew's Opportunity Shop - Brighton",
    "address": "17 St Andrew's Street, Brighton VIC",
    "opentime": "Mon - Fri 10.00-4.00\nSat 10.00-1.00\n",
    "lat": -37.9117964,
    "lng": 144.9930685},
    {
    "id": 325,
    "name": "Hampton Salvos",
    "address": "562 Hampton St, Hampton VIC 3188",
    "opentime": "Mon - Fri 9.00-5.30\nSat 9.00-5.00\n",
    "lat": -37.932006200000004,
    "lng": 145.0037263},
    {
    "id": 326,
    "name": "Hampton Red Cross",
    "address": "436 Hampton St, Hampton VIC 3188",
    "opentime": "Mon - Fri 9:30am - 5:30pm\nSat 10:00am - 4:30pm\n",
    "lat": -37.937464,
    "lng": 145.002699},
    {
    "id": 327,
    "name": "Storehouse Op Shop- Hampton",
    "address": "519 Hampton Street, Hampton",
    "opentime": "Mon - Fri 10am-5:00pm\nSat 10am-4:00pm\nSun Closed\n",
    "lat": -37.931825700000005,
    "lng": 145.0031614},
    {
    "id": 328,
    "name": "Vinnies Hampton",
    "address": "501 Hampton Street, Hampton VIC 3188",
    "opentime": "Mon - Sat 9:00 AM - 5:00 PM\nSun 10:00 AM - 4:00 PM \n",
    "lat": -37.932435399999996,
    "lng": 145.0032229},
    {
    "id": 329,
    "name": "Family Life Hampton",
    "address": "452B Hampton Street Hampton ",
    "opentime": "Mon 9:30am-5:00pm\nTue 9:30am-5:00pm \nWed - Sat 9:30am-5:00pm\nSun CLOSED \n",
    "lat": -37.9368715,
    "lng": 145.00282980000003},
    {
    "id": 330,
    "name": "AAPS - Moorabbin",
    "address": "54 Station Street, Moorabbin 3189",
    "opentime": "Unknown\n",
    "lat": -37.933652,
    "lng": 145.03753999999998},
    {
    "id": 331,
    "name": "The Recycle 'n' Realx Club ",
    "address": "2 cochranes road Moorabbin 3189",
    "opentime": "Tue - Sat 10am-4pm\n",
    "lat": -37.9422929,
    "lng": 145.0607987},
    {
    "id": 332,
    "name": "Savers Moorabbin ",
    "address": "430 Warrigal Road Suite 4&amp;5 Heatherton, VIC 3202",
    "opentime": "Mon - Wed 9:00 am - 7:00 pm \nThu - Fri 9:00 am - 9:00 pm \nSat - Sun 9:00 am - 6:00 pm \n",
    "lat": -37.9487231,
    "lng": 145.078757},
    {
    "id": 333,
    "name": "Family Life Highett",
    "address": "12-14 Railway Parade, Highett",
    "opentime": "Mon - Fri 9.30am-5pm\nSat 9.30am- 2pm\nSun Closed\n",
    "lat": -37.9483318,
    "lng": 145.0423392},
    {
    "id": 334,
    "name": "Oz Child - Highett",
    "address": "356 Highett Rd, Highett VIC",
    "opentime": "Mon - Fri 9am - 3:30pm\nSat 8:30am - 12:30pm\n",
    "lat": -37.9492357,
    "lng": 145.044671},
    {
    "id": 335,
    "name": "All Souls' Opportunity Shop - Sandringham",
    "address": "46 Bay Rd, Sandringham VIC",
    "opentime": "Mon - Fri 9:30-4:30\nSat 9.30-1pm\n",
    "lat": -37.9521545,
    "lng": 145.0053997},
    {
    "id": 336,
    "name": "Super Fund Care",
    "address": "1/5-7 Radcliff Ave",
    "opentime": "Unknown\n",
    "lat": -37.959827600000004,
    "lng": 145.0586961},
    {
    "id": 337,
    "name": "Family Life Cheltenham",
    "address": "1297 Nepean Hwy, Cheltenham VIC 3192",
    "opentime": "Mon - Fri 10am - 5pm\nSat 10am - 2pm\nSun Closed\n",
    "lat": -37.965267100000005,
    "lng": 145.0581007},
    {
    "id": 338,
    "name": "Sacred Heart Mission Cheltenham ",
    "address": "261 Charman Road, Cheltenham",
    "opentime": "Mon - Sun 10am - 5pm\n",
    "lat": -37.966533,
    "lng": 145.055276},
    {
    "id": 339,
    "name": "AAPS - Cheltenham",
    "address": "22 Station Road, Cheltenham 3192",
    "opentime": "Mon - Fri 9.30am-4pm\nSat 9.30am-12pm\n",
    "lat": -37.9672472,
    "lng": 145.05698030000002},
    {
    "id": 340,
    "name": "Beatrice Yu",
    "address": "43 Kembla Street, Cheltenham, Victoria",
    "opentime": "Mon - Fri 9am -5pm\n",
    "lat": -37.9746309,
    "lng": 145.085467},
    {
    "id": 341,
    "name": "Cheltenham Opportunity Shop - Cheltenham",
    "address": "35 Station Rd, Cheltenham VIC",
    "opentime": "Mon - Fri 9.30am-4pm\nSat 9.30am-12pm\n",
    "lat": -37.96698629999999,
    "lng": 145.0570403},
    {
    "id": 342,
    "name": "Cheltenham Salvos",
    "address": "1216 Nepean Highway, Cheltenham VIC 3192",
    "opentime": "Mon - Fri 9.00-5.30\nSat 9.00-5.00\n",
    "lat": -37.963495,
    "lng": 145.055732},
    {
    "id": 343,
    "name": "Family Life Black Rock",
    "address": "601 Balcombe Road Black Rock",
    "opentime": "Mon - Fri 9:30am-5:00pm\nSat 9:30am- 2:00pm\nSun CLOSED \n",
    "lat": -37.975736299999994,
    "lng": 145.0170013},
    {
    "id": 344,
    "name": "Mentone Salvos",
    "address": "46 - 48 Florence Street, Mentone VIC 3194",
    "opentime": "Mon - Fri 9.00-5.30\nSat 9.00-5.00\n",
    "lat": -37.98283840000001,
    "lng": 145.06409109999998},
    {
    "id": 345,
    "name": "Salvos Mentone",
    "address": "46/48 Florence St, Mentone VIC 3194",
    "opentime": "Mon - Fri 9.00-5.30\nSat 9.00-5.00\n",
    "lat": -37.9829309,
    "lng": 145.06431640000002},
    {
    "id": 346,
    "name": "Southern Opportunity Shop - Mentone",
    "address": "51 Florence St, Mentone VIC",
    "opentime": "Mon - Fri 9:30-4:30\nSat 9:30-12:30\n",
    "lat": -37.982548,
    "lng": 145.064064},
    {
    "id": 347,
    "name": "Vinnies Mentone",
    "address": "34 Nepean Highway, Mentone VIC 3194",
    "opentime": "Mon - Fri 9:00 AM - 5:00 PM\nSat - Sun 10:00 AM - 4:00 PM\n",
    "lat": -37.975882500000004,
    "lng": 145.06531669999998},
    {
    "id": 348,
    "name": "Moridallic Salvos",
    "address": "489 Main St  Mordialloc VIC 3195",
    "opentime": "Mon - Fri 9.00-5.30\nSat 9.00-5.00\n",
    "lat": -38.006339000000004,
    "lng": 145.086649},
    {
    "id": 349,
    "name": "Lions Opportunity Shop - Mordialloc",
    "address": "497 Main St, Mordialloc VIC",
    "opentime": "Mon 10an to 3pm\nTue 10am to 3pm\nWed - Thu 10am to 4pm\nFri 10am to 3pm\nSat 9.30am to 4.30pm\nSun Closed\n",
    "lat": -38.006549,
    "lng": 145.086814},
    {
    "id": 350,
    "name": "St Marks Anglican Opportunity Shop",
    "address": "cnr Nepean Hwy & ODonoghue St",
    "opentime": "Thurs-Fri:9am to 4pm\n Sat:9am to 12pm\n",
    "lat": -37.8977955,
    "lng": 145.00518019999998},
    {
    "id": 351,
    "name": "Epilepsy Op Shop Parkdale",
    "address": "258 Como Pde West, Parkdale VIC",
    "opentime": "Mon - Sat 10am to 4pm\n",
    "lat": -37.9934848,
    "lng": 145.0760537},
    {
    "id": 352,
    "name": "Yooralla - Chelsea",
    "address": "Shop 2/402 Chealsa, Nepean Highway,",
    "opentime": "Unknown\n",
    "lat": -38.164344,
    "lng": 145.1017975},
    {
    "id": 353,
    "name": "Longbeach Anglican Parish",
    "address": "405 Nepean Hwy, Chelsea VIC",
    "opentime": "Mon - Fri 9:00-4:00\nSat 9:00-1:00\n",
    "lat": -38.052289200000004,
    "lng": 145.1155241},
    {
    "id": 354,
    "name": "Family Life Opportunity Shop",
    "address": "435 Nepean Highway, Chelsea",
    "opentime": "Mon - Fri 10-4\nSat 9.30-3\n",
    "lat": -38.054025700000004,
    "lng": 145.1165667},
    {
    "id": 355,
    "name": "RSPCA Chelsea Op Shop ",
    "address": "424 Nepean Highway, Chelsea VIC",
    "opentime": "Mon - Fri 9.30 am - 5.00 pm\nSat 9.30 am - 3.00 pm\nSun Closed\n",
    "lat": -38.0535294,
    "lng": 145.1160952},
    {
    "id": 356,
    "name": "Vinnies Chelsea Heights",
    "address": "Unit 1-2/6 Hartwood Court, Chelsea Heights VIC 3196",
    "opentime": "Mon - Sat 9am-5pm\nSun 10am - 4pm\n",
    "lat": -38.0357361,
    "lng": 145.1362426},
    {
    "id": 357,
    "name": "Chelsea Heights Salvos",
    "address": "2/1 Hartwood Court, Chelsea Heights VIC 3196",
    "opentime": "Mon - Sat 9.00-5.00\nSun 11.00-4.00 \n",
    "lat": -38.03542120000001,
    "lng": 145.1357296},
    {
    "id": 358,
    "name": "Vinnies Seaford",
    "address": "152 Austin Road, Seaford VIC 3198",
    "opentime": "Mon - Tue 8:30 AM - 4:00 PM\nWed 8:00 AM - 4:00 PM\nThu 9:00 AM - 4:00\nFri 8:30 AM - 4:00PM\nSat 9:00 AM - 12:00 PM\n",
    "lat": -38.107136,
    "lng": 145.14803799999999},
    {
    "id": 359,
    "name": "Avocare Seaford Op Shop and Secondhand Bookshop",
    "address": "Factory 1, 95 Hartnett drive Seaford ",
    "opentime": "Mon - Fri 9am - 4pm\n",
    "lat": -38.118927899999996,
    "lng": 145.1409094},
    {
    "id": 360,
    "name": "Brotherhood Seaford",
    "address": "Shop 1, 1-3 Station Street, Seaford",
    "opentime": "Mon - Thu 9:30am - 4pm\nFri 9:30am - 3:45pm\nSat 9.30am - 12pm\n",
    "lat": -38.1033261,
    "lng": 145.1262413},
    {
    "id": 361,
    "name": "Save the Children - Frankston",
    "address": "28 Playne Street, Frankston VIC",
    "opentime": "Mon - Fri 9.30am - 4.30pm\nSat 9.30am - 3.30pm\n",
    "lat": -38.1449372,
    "lng": 145.12173069999997},
    {
    "id": 362,
    "name": "Op Shop on the Hill @ St Paul's",
    "address": "1 Bay Street, Frankston VIC",
    "opentime": "Mon Closed\nTue 10.00am-1.00pm\nWed - Thu Closed\nFri 9.30am-4.00pm\nSat 10.00am - 12 noon (First Saturday only)\nSun Closed\n",
    "lat": -38.147707399999994,
    "lng": 145.1182475},
    {
    "id": 363,
    "name": "Heavenly Ware Op Shop",
    "address": "130 Cranbourne Rd, Frankston VIC",
    "opentime": "Tue - Fri 10:00am - 1:00pm\nSat - Sun Closed\n",
    "lat": -38.1471373,
    "lng": 145.1415346},
    {
    "id": 364,
    "name": "Frankston Life Community Store",
    "address": "9 Station Street Frankston ",
    "opentime": "Mon - Fri 9 am to 5pm\nSat 9am to 4pm\nSun Not Open\n",
    "lat": -38.142984999999996,
    "lng": 145.1243709},
    {
    "id": 365,
    "name": "Frankston Salvos",
    "address": "17 Thompson Street, Frankston VIC 3199",
    "opentime": "Mon - Fri 9.00-5.30\nSat 9.00-5.00\n",
    "lat": -38.14351,
    "lng": 145.122152},
    {
    "id": 366,
    "name": "Vinnies Frankston",
    "address": "80 Young St, Frankston VIC 3199",
    "opentime": "Mon - Sat 9:00 AM - 5 PM\n",
    "lat": -38.143603000000006,
    "lng": 145.125151},
    {
    "id": 367,
    "name": "Red Cross - Frankston",
    "address": "13b Thompson St, Frankston VIC",
    "opentime": "Mon-Fri 9:30-4:30\nSat 9:30-1:00\n",
    "lat": -38.143664,
    "lng": 145.12196459999998},
    {
    "id": 368,
    "name": "RSPCA",
    "address": "4 Peninsula Walk, Cnr Playne and Young St,Frankston",
    "opentime": "Mon - Fri 9.30am to 4pm\nSat 9.30 to 12.30pm\n",
    "lat": -38.1450855,
    "lng": 145.1237299},
    {
    "id": 369,
    "name": "IMHS Charity Op Shop",
    "address": "51 Kareela Road 3199 Frankston, Victoria",
    "opentime": "Mon - Sun 9.30am-4pm\n",
    "lat": -38.144865,
    "lng": 145.15015400000001},
    {
    "id": 370,
    "name": "St John's Bargain Op shop",
    "address": "Cnr Frankston -Dandenong Rd and Monterey Blvd Frankston North",
    "opentime": "Mon 9.00 am - 2.00 pm\nThu 9.00 am - 2.00 pm\nSat 10.00-1.00pm, 2nd & 4th in a Calendar Month\n",
    "lat": -38.118333299999996,
    "lng": 145.1490445},
    {
    "id": 371,
    "name": "Recycle Super store",
    "address": "47 Excelsior Drive VIC",
    "opentime": "Mon - Fri 9am - 5pm\nSat 9am -2pm\n",
    "lat": -38.117645,
    "lng": 145.15958999999998},
    {
    "id": 372,
    "name": "Savers Currum Downs",
    "address": "576-578 Frankston-Dandenong Road Carrum Downs, VIC 3201",
    "opentime": "Mon - Wed 9:00 am - 7:00 pm\nThu - Fri 9:00 am - 9:00 pm\nSat - Sun 9:00 am - 6:00 pm \n",
    "lat": -38.0987495,
    "lng": 145.1730744},
    {
    "id": 373,
    "name": "Vinnies Carrum Downs",
    "address": "562 Frankston/Dandenong Road, Carrum Downs VIC 3201",
    "opentime": "Mon - Sat 9:00 AM - 5:00 PM\nSun 10:00 AM - 4:00PM\n",
    "lat": -38.1010813,
    "lng": 145.1703111},
    {
    "id": 374,
    "name": "Carrum Downs Salvos",
    "address": "5/2 Amayla Crescent, Carrum Downs VIC 3201",
    "opentime": "Mon - Fri 9.00-5.30\nSat 9.00-5.00\n",
    "lat": -38.106390000000005,
    "lng": 145.165092},
    {
    "id": 375,
    "name": "Salvation Army Church Thrift Shop ",
    "address": "1265 Frankston Dandenong Rd Carrum Downs ",
    "opentime": "Mon Closed\nTue - Fri 9.30-2.30\n",
    "lat": -38.1006084,
    "lng": 145.1726831},
    {
    "id": 376,
    "name": "The Holland Foundation Op Shop",
    "address": "502 Centre Road, Bentleigh VIC 3204",
    "opentime": "Mon - Fri 9:00am to 5:30pm\nSat - Sun 10am to 4:00pm\n",
    "lat": -37.9189344,
    "lng": 145.0408431},
    {
    "id": 377,
    "name": "Bentleigh East Salvos",
    "address": "475 Centre Road, Bentleigh  VIC 3204",
    "opentime": "Mon - Fri 9.00-5.30\nSat 9.00-5.00\n",
    "lat": -37.918696999999995,
    "lng": 145.042146},
    {
    "id": 378,
    "name": "Red Cross - Bentleigh",
    "address": "455 Centre Rd, Bentleigh VIC",
    "opentime": "Mon-Fri 9:30-5:00\nSat 9:30-3:00\n",
    "lat": -37.9185023,
    "lng": 145.0408323},
    {
    "id": 379,
    "name": "Vinnies Bentleigh",
    "address": "394 Centre Road, Bentleigh VIC 3204",
    "opentime": "Mon - Sun 9:00 AM - 5:00 PM\n",
    "lat": -37.9183273,
    "lng": 145.036376},
    {
    "id": 380,
    "name": "Golden Opportunity Shop - Bentleigh (Possible Closed)",
    "address": "512a Centre Rd, Bentleigh VIC",
    "opentime": "Mon - Fri 9:30-4:30\nSat 9:30-1:00\n",
    "lat": -37.91894129999999,
    "lng": 145.0411726},
    {
    "id": 381,
    "name": "Brotherhood Bentleigh",
    "address": "518 Centre Road, Bentleigh",
    "opentime": "Mon - Fri 9:30am - 5pm\nSat 10am - 4pm\nSun 10am - 3pm\n",
    "lat": -37.91905819999999,
    "lng": 145.0413979},
    {
    "id": 382,
    "name": "Sacred Heart Mission",
    "address": "271 Centre Road Bentleigh",
    "opentime": "Mon - Sun 10am - 5pm\n",
    "lat": -37.917518,
    "lng": 145.032829},
    {
    "id": 383,
    "name": "Vision Australia Op Shop",
    "address": "839 Nepean Highway, Bentleigh, VIC, 3204",
    "opentime": "Mon - Fri 9 am - 4:30 pm\nSat 9 am - 12 pm\n",
    "lat": -37.925201,
    "lng": 145.027389},
    {
    "id": 384,
    "name": "Epilepsy Op Shop Bentleigh",
    "address": "351  Centre Road   Bentleigh  Vic  3204",
    "opentime": "Mon 9.30am   -    4.30pm\nTue 9.30am   -  4.30pm\nWed 9.30am  -   4.30pm\nThu 9.30am   -   4.30pm\nFri 9.30am   -  4.30pm\nSat 11.00am   -   3.00pm\n",
    "lat": -37.917964000000005,
    "lng": 145.036},
    {
    "id": 385,
    "name": "Sacred Heart Mission, Bentleigh Op Shop",
    "address": " 271 Centre Road (cnr Wheatley Rd) Bentleigh",
    "opentime": "Mon - Sun 10am - 5pm\n",
    "lat": -37.9175777,
    "lng": 145.0325091},
    {
    "id": 386,
    "name": "Vinnies Ormond",
    "address": "491 North Road, Ormond VIC 3204",
    "opentime": "Mon - Fri 10:00 AM - 5:00 PM\nSat 10:00 AM - 1:00 PM\n",
    "lat": -37.903741,
    "lng": 145.040154},
    {
    "id": 387,
    "name": "Sacred Heart Mission, South Melbourne Op Shop",
    "address": "365 Clarendon Street South Melbourne",
    "opentime": "Mon - Sun 10am - 5pm\n",
    "lat": -37.835892,
    "lng": 144.962184},
    {
    "id": 388,
    "name": "Sacred Heart Mission - South Melbourne",
    "address": "365 Clarendon Street, South Melbourne",
    "opentime": "Mon - Sun 10am - 5pm\n",
    "lat": -37.835892,
    "lng": 144.962184},
    {
    "id": 389,
    "name": "South Melbourne Community Chest Opportunity Shop - South Melbourne",
    "address": "202 Bank St, South Melbourne VIC",
    "opentime": "Mon - Fri 10-5\nSat 10-2\n",
    "lat": -37.83406919999999,
    "lng": 144.96046230000002},
    {
    "id": 390,
    "name": "South Melbourne Salvos",
    "address": "183 Clarendon Street, South Melbourne VIC 3205",
    "opentime": "Mon - Fri 9.30-5.30\nSat 9.00-5.00\n",
    "lat": -37.8299651,
    "lng": 144.9594129},
    {
    "id": 391,
    "name": "Uniting Goodwill Op Shop - Albert Park",
    "address": "115 Bridport Street, Albert Park VIC",
    "opentime": "Mon Closed \nTue - Fri 10am- 4.30pm\nSat 10am - 2.00pm\nSun Closed\n",
    "lat": -37.840763,
    "lng": 144.956221},
    {
    "id": 392,
    "name": "Epilepsy Op Shop  Port Melbourne",
    "address": "2/322  Bay Street   Port Melbourne  Vic  3207",
    "opentime": "Mon 9.30am  -  4.30pm\nTue 9.30am  - 4.30pm\nWed - Fri 9.30am  -  4.30pm\nSat 9.30am  -  4.00pm\n",
    "lat": -37.836748799999995,
    "lng": 144.94438540000002},
    {
    "id": 393,
    "name": "Vinnies Port Melbourne",
    "address": "326 Bay Street, Port Melbourne VIC 3207",
    "opentime": "Mon - Fri 9:00 AM - 5:00 PM\nSat 9:30 AM - 1:00 PM\n",
    "lat": -37.836673,
    "lng": 144.944402},
    {
    "id": 394,
    "name": "South Port UnitingCare Op Shop- Port Melb",
    "address": "323 Bay St Port Melbourne",
    "opentime": "Tue - Fri 10am-4.00pm\n",
    "lat": -37.836099299999994,
    "lng": 144.94408430000001},
    {
    "id": 395,
    "name": "Anglican Op shop",
    "address": "35-39 Curletts Rd. Lara",
    "opentime": "Mon closed\nTue - Fri 10-4\nSat 10-1\n",
    "lat": -38.0178326,
    "lng": 144.404235},
    {
    "id": 396,
    "name": "Salvos Lara",
    "address": "28 Hicks Street, Lara VIC 3212",
    "opentime": "Mon - Fri 9.30-5.30\nSat 9.00-2.00\n",
    "lat": -38.0223317,
    "lng": 144.4160833},
    {
    "id": 397,
    "name": "Treasures Op Shop",
    "address": "15 Detroit Cresent, Norlane, 3214",
    "opentime": "Mon - Tue 10am-3.00pm\nWed - Fri 10am-4pm\n",
    "lat": -38.0777835,
    "lng": 144.3618854},
    {
    "id": 398,
    "name": "The Bridge",
    "address": "108 Bacchus Marsh Rd Corio VIC 3214",
    "opentime": "Tue 10am-3.45pm\nWed - Fri 10am - 3.45pm\n",
    "lat": -38.0750904,
    "lng": 144.359078},
    {
    "id": 399,
    "name": "Vinnies Norlane",
    "address": "3 Labuan Square, Norlane VIC 3214",
    "opentime": "Mon - Fri 10:00 AM - 4:00 PM\nSat - Sun Closed\n",
    "lat": -38.0960184,
    "lng": 144.3604494},
    {
    "id": 400,
    "name": "church of christ op shop",
    "address": "Eagle Parade Norlane",
    "opentime": "Thu - Fri 10.00-3.00\n",
    "lat": -38.0865468,
    "lng": 144.3504613},
    {
    "id": 401,
    "name": "Golden Opportunity Community Shop",
    "address": "55 Alkira Avenue, Norlane",
    "opentime": "Mon 9am to 3pm\nTue 9am to 4pm\nWed - Fri 9am to 3pm\nSat CLOSED\nSun Closed\n",
    "lat": -38.093660899999996,
    "lng": 144.350173},
    {
    "id": 402,
    "name": "Geelong North Salvos",
    "address": "235 Thompsons Road , Geelong North VIC 3215",
    "opentime": "Mon - Fri 9.00-5.30\nSat 9.00-5.00\n",
    "lat": -38.108574100000006,
    "lng": 144.34338459999998},
    {
    "id": 403,
    "name": "Vines Options",
    "address": "81 Vines Rd, HAMLYN HEIGHTS, 3215",
    "opentime": "Mon - Thu 10:00AM-4:00PM\nFri 10:00AM-1:00PM\n",
    "lat": -38.121326399999994,
    "lng": 144.3283751},
    {
    "id": 404,
    "name": "GAWS Op Shop",
    "address": "63 Vines Road, Hamlyn Heights",
    "opentime": "Mon - Sat 10am - 4pm\nSun Closed\n",
    "lat": -38.1218274,
    "lng": 144.32833459999998},
    {
    "id": 405,
    "name": "Vinnies Hamlyn Heights",
    "address": "71-75 Vines Road, Hamlyn Heights VIC 3215",
    "opentime": "Mon - Fri 9:00 AM - 5:00 PM\nSat 9:00 AM - 1:00 PM\nSun CLOSED\n",
    "lat": -38.12152879999999,
    "lng": 144.3283351},
    {
    "id": 406,
    "name": "Edols Street Op Shop",
    "address": "24 Edols Street North Geelong",
    "opentime": "Mon Not open\nTue 9.30 - 4.30\nWed - Fri 9.30-4.30\nSat 11-4.30\nSun Not open\n",
    "lat": -38.1100323,
    "lng": 144.3510494},
    {
    "id": 407,
    "name": "Oppe Shoppe",
    "address": "Shop 5/120 High Street, Belmont Victoria",
    "opentime": "Mon - Fri 9:30am - 4:00pm\nSat 10-2\n",
    "lat": -38.172348,
    "lng": 144.3447889},
    {
    "id": 408,
    "name": "Belmont Thrift Shop",
    "address": "17 Settlement Rd Belmont",
    "opentime": "Mon - Fri 9.30-4.30\nSat 10.00-3.00\n",
    "lat": -38.1787444,
    "lng": 144.3518821},
    {
    "id": 409,
    "name": "Scout Association Op Shop",
    "address": "110 High Street, Belmont",
    "opentime": "Mon - Fri 10am to 4.30\nSat 9.30-12.30\n",
    "lat": -38.17237539999999,
    "lng": 144.3452207},
    {
    "id": 410,
    "name": "Kalkee Korner shoppe",
    "address": "93 Francis St Belmont",
    "opentime": "Mon - Fri 10.00-4.00\nSat 9.00-1.00\n",
    "lat": -38.1803747,
    "lng": 144.3482584},
    {
    "id": 411,
    "name": "Lifeline - Belmont",
    "address": "174 High Street, Belmont, Geelong",
    "opentime": "Mon - Fri 9.00-4.00\nSat 10.00-2.30\n",
    "lat": -38.17476129999999,
    "lng": 144.34277319999998},
    {
    "id": 412,
    "name": "3216 Connect",
    "address": "2 Dendle Street Grovedale",
    "opentime": "Wed - Fri 10am-4pm\nSat First of Month 9am - 1pm\n",
    "lat": -38.19555220000001,
    "lng": 144.34604199999998},
    {
    "id": 413,
    "name": "Chattels and chat ",
    "address": "cnr Reserve and Torquay Road  Grovedale",
    "opentime": "Wed - Thu 10 - 4 pm\nFri 11 - 3pm\nSat 10 - 4pm\n",
    "lat": -38.2049369,
    "lng": 144.34063380000003},
    {
    "id": 414,
    "name": "Grovedale Salvos",
    "address": "Shop 3, 150 Torquay Road, Grovedale",
    "opentime": "Mon - Fri 9.30-5.30\nSat 9.00-2.00\n",
    "lat": -38.1940162,
    "lng": 144.3427144},
    {
    "id": 415,
    "name": "Brotherhood Grovedale",
    "address": "194 Torquay Road, Grovedale",
    "opentime": "Mon - Fri 9:30am - 5pm\nSat 9.30 am to 4.30 pm\n",
    "lat": -38.1978256,
    "lng": 144.34265459999997},
    {
    "id": 416,
    "name": "First Options Op Shop",
    "address": "8 Porter Ave, HIGHTON 3216",
    "opentime": "Mon - Fri 10am-4-pm\n",
    "lat": -38.18083060000001,
    "lng": 144.3171835},
    {
    "id": 417,
    "name": "Geelong West Salvos Stores",
    "address": "4/23 Pakington Street, Geelong West VIC 3218",
    "opentime": "Mon - Fri 9.30-5.30\nSat 9.00-4.00\n",
    "lat": -38.1336575,
    "lng": 144.3493627},
    {
    "id": 418,
    "name": "MS Community Shop - GEELONG",
    "address": "1/96 Pakington St, Geelong West, 3218",
    "opentime": "Mon - Fri 10am - 5pm\nSat 9am - 3pm\nSun CLOSED\n",
    "lat": -38.1417383,
    "lng": 144.3483193},
    {
    "id": 419,
    "name": "Lifeline - Geelong West",
    "address": "88 Pakington Steet, Geelong West, Vic",
    "opentime": "Mon - Fri 9am - 4pm\nSat 10am - 1pm\n",
    "lat": -38.13722620000001,
    "lng": 144.3491873},
    {
    "id": 420,
    "name": "Vinnies Geelong West",
    "address": "53-55 Pakington Street, Geelong West VIC 3218",
    "opentime": "Mon - Sat 9:00 AM - 5:00 PM\nSun 9:30 AM - 4:30 PM\n",
    "lat": -38.135090000000005,
    "lng": 144.3491784},
    {
    "id": 421,
    "name": "RSPCA",
    "address": "1/227 Autumn St, Geelong West",
    "opentime": "Mon - Fri 9:00am - 4:00pm\nSat: 9:00am - 12:00pm\n",
    "lat": -38.1418097,
    "lng": 144.3363396},
    {
    "id": 422,
    "name": "R.S.P.C.A.",
    "address": "227 Autumn Street, Geelong West, Victoria",
    "opentime": "Mon to Fri 8-30 to 3-30 Sat 9-00 to 12-30\n",
    "lat": -38.1418097,
    "lng": 144.3363396},
    {
    "id": 423,
    "name": "Fight Cancer Foundation Recycle Stop",
    "address": "203 Pakington Street Geelong West",
    "opentime": "Mon - Fri 10.00 am - 4.00 pm\nSat 9.30 am - 01.00 pm\nSun Closed\n",
    "lat": -38.142866,
    "lng": 144.3476808},
    {
    "id": 424,
    "name": "Ormond Village Op Shop",
    "address": "140 Ormond Rd, EAST GEELONG 3219",
    "opentime": "Unknown\n",
    "lat": -38.164986299999995,
    "lng": 144.3804126},
    {
    "id": 425,
    "name": "St. Mathews",
    "address": "269 Myers Street, Geelong East",
    "opentime": "Mon-Fri 9am to 5pm; Sat 9am to 1pm\n",
    "lat": -38.1549447,
    "lng": 144.3721821},
    {
    "id": 426,
    "name": "Heaven Cent Op shop",
    "address": "56a Watsons road Newcomb",
    "opentime": "Mon - Fri 9.45am to 4.30pm\nSat 9am to 12 noon\n",
    "lat": -38.16505170000001,
    "lng": 144.3905562},
    {
    "id": 427,
    "name": "Recycle Shop",
    "address": "Cnr Haworth Crt & Boundary Rd, Breakwater",
    "opentime": "Mon - Fri 9.00-4.00\nSat 9.00-3.00\n",
    "lat": -38.1840221,
    "lng": 144.38165130000002},
    {
    "id": 428,
    "name": "Apollo Place Pre-Loved",
    "address": "21 Apollo Pl, Whittington 3219",
    "opentime": "Mon - Fri Monday 10am-3.30pm\n",
    "lat": -38.1791268,
    "lng": 144.3948106},
    {
    "id": 429,
    "name": "Readystart",
    "address": "138a Wilson's Road Whittington",
    "opentime": "Mon 9.30 am - 4pm\nTue 9.30am- 4pm\nWed 9.30 am- 4pm\nThu 9.30am - 4pm\nFri 9.30am- 4pm\n",
    "lat": -38.17224849999999,
    "lng": 144.3904775},
    {
    "id": 430,
    "name": "Lifeline Op Shop ",
    "address": "13 James Street, Geelong CBD",
    "opentime": "Mon - Fri 9am - 4pm\nSat 9am - 12pm\n",
    "lat": -38.148507200000005,
    "lng": 144.3588127},
    {
    "id": 431,
    "name": "Geelong Red Cross",
    "address": "136 Moorabool Street, Geelong, 3220 ",
    "opentime": "Mon - Fri 9:30am - 4:00pm\nSat 9.30am - 1pm\n",
    "lat": -38.14862249999999,
    "lng": 144.3598452},
    {
    "id": 432,
    "name": "Salvo's store",
    "address": "16-18 Malop St, geelong",
    "opentime": "Mon - Fri 9.00-5.30\nSat 9.00-5.00\n",
    "lat": -38.147061,
    "lng": 144.359019},
    {
    "id": 433,
    "name": "Geelong Hospital Auxilary",
    "address": "171 Malop Street, Geelong",
    "opentime": "Mon to Fri 10:00 to 2:00\n",
    "lat": -38.148275700000006,
    "lng": 144.3650917},
    {
    "id": 434,
    "name": "Vinnies Geelong South",
    "address": "162 Fyans Street, Geelong South VIC 3220",
    "opentime": "Mon - Fri 9:00 AM - 5:00 PM\nSat 9:00 AM - 5:00 PM\nSun Closed\n",
    "lat": -38.1652727,
    "lng": 144.3647471},
    {
    "id": 435,
    "name": "Lifeline Warehouse and Distribution Centre",
    "address": "97 Strong Street, Geelong South",
    "opentime": "Unknown\n",
    "lat": -38.1710461,
    "lng": 144.3706991},