[
  {
    "id": 0,
    "name": "Salvos",
    "address": "69 Bourke Street Melbourne ",
    "opentime": "Mon - Fri 10am-6pm\nSat 10am-4pm\nSun Closed\n",
    "lat": -37.8120806,
    "lng": 144.9714159
  },
  {
    "id": 1,
    "name": "Brotherhood City Basement",
    "address": "Basement, Royal Arcade,Bourke Street Mall, Melbourne",
    "opentime": "Mon - Fri 9am to 4:45pm\nSat 9:30am to 3:30pm\n",
    "lat": -37.8145386,
    "lng": 144.96409369999998
  },
  {
    "id": 2,
    "name": "hunter gatherer City Ground Floor",
    "address": "Ground Floor, Royal Arcade, Melbourne",
    "opentime": "Mon - Fri 10 am to 5.15 pm\nSat 10 am to 4:45 pm\n",
    "lat": -37.814711700000004,
    "lng": 144.9640835
  },
  {
    "id": 3,
    "name": "The Conscious Closet",
    "address": "Queen Victoria Women's Centre, Ground Floor 210 Lonsdale Street, Melbourne",
    "opentime": "Tue - Sat 12 - 5PM\n",
    "lat": -37.810964,
    "lng": 144.965903
  },
  {
    "id": 4,
    "name": "Savers Footscray",
    "address": "33 Albert St, Footscray",
    "opentime": "Mon - Wed 9am - 8pm\nThu - Fri 9am - 9pm\nSat 9am - 7pm\nSun 10am - 6pm\n",
    "lat": -37.801720700000004,
    "lng": 144.8980249
  },
  {
    "id": 5,
    "name": "Community Link-Up Opportunity Shop - Footscray North",
    "address": "11 May Street, Footscray North VIC",
    "opentime": "Thu 10-1pm\nSat closed\n",
    "lat": -37.7886593,
    "lng": 144.8846525
  },
  {
    "id": 6,
    "name": "Footscray Salvos",
    "address": "199 Barkly Street , Footscray VIC 3011",
    "opentime": "Mon - Fri 9.00-5.30\nSat 9.00-5.00\n",
    "lat": -37.799682000000004,
    "lng": 144.897569},
  {
    "id": 7,
    "name": "Opportunity Shop - West Footscray",
    "address": "557 Barkly St, West Footscray VIC",
    "opentime": "Unknown\n",
    "lat": -37.797475299999995,
    "lng": 144.8771591},
  {
    "id": 8,
    "name": "Lighthouse West Footscray",
    "address": "79 sunshine road west footscray",
    "opentime": "Mon - Sat 9am to 4.30\n",
    "lat": -37.800945,
    "lng": 144.86901509999998},
  {
    "id": 9,
    "name": "Green Collective - Yarraville",
    "address": "71 Anderson Street, Yarraville, Victoria 3013",
    "opentime": "Mon-Fri 9.30am - 5pm\nSat 10am - 4pm\n",
    "lat": -37.8165925,
    "lng": 144.88895019999998},
  {
    "id": 10,
    "name": "Yarraville Bargain Centre",
    "address": "9 Anderson Street, Yarraville",
    "opentime": "Mon - Sat 9am-5pm\nSun 10am-4pm\n",
    "lat": -37.8168876,
    "lng": 144.89179719999998},
  {
    "id": 11,
    "name": "Missionpoint Pilgrim Op Shop",
    "address": "154 Somerville Road, Yarraville",
    "opentime": "Wed - Fri 9.30am-3.30pm\nSat 10.00am-2.00pm\n",
    "lat": -37.812776,
    "lng": 144.884453},
  {
    "id": 12,
    "name": "Vinnies Newport",
    "address": "3-5 Mason Street, Newport VIC 3015",
    "opentime": "Mon - Fri 9:00 AM - 5:00 PM\nSat 9:30 AM - 4:00 PM\nSun 10:00 AM - 4:00 PM\n",
    "lat": -37.8431669,
    "lng": 144.8825558},
  {
    "id": 13,
    "name": "Orthodox Christian Mission Sisterhood of St John The Eleimon",
    "address": "612-614 Melbourne Rd, Spotswood, Victoria",
    "opentime": "Mon - Fri 10.00am - 5.30pm\nSat 9.00am- 4.00pm\nSun closed\n",
    "lat": -37.8296237,
    "lng": 144.88160530000002},
  {
    "id": 14,
    "name": "St Andrews (church op shop) - Williamstown",
    "address": "89 Cecil Street, Williamstown VIC",
    "opentime": "Mon - Wed Closed\nThu 10-2\nFri Closed\nSat Check\nSun Closed\n",
    "lat": -37.86513970000001,
    "lng": 144.90312749999998},
  {
    "id": 15,
    "name": "Williamstown Hospital Opportunity Shop",
    "address": "47 Ferguson Street, Williamstown, 3016",
    "opentime": "Mon - Fri 9am - 4pm\n",
    "lat": -37.859274600000006,
    "lng": 144.899449},
  {
    "id": 16,
    "name": "Williamstown Uniting Church Opportunity Shop - Williamstown",
    "address": "Stevedore St, Williamstown VIC",
    "opentime": "Mon - Fri 10a - 4p\nSat 9:30a - 12:00\n",
    "lat": -37.8568995,
    "lng": 144.8976125},
  {
    "id": 17,
    "name": "Williamstown Salvos",
    "address": "Units 1 & 2, 308 Kororoit Creek Road, Williamstown VIC 3016",
    "opentime": "Mon - Fri 9.00-5.30\nSat 9.00-5.00\n",
    "lat": -37.855115999999995,
    "lng": 144.865308},
  {
    "id": 18,
    "name": "Vanoshy",
    "address": "80 Pier street altona",
    "opentime": "Mon - Sun 9am to 6pm\n",
    "lat": -37.8679417,
    "lng": 144.8308226},
  {
    "id": 19,
    "name": "Braybrook Salvos",
    "address": "296 Ballarat Road, Braybrook VIC 3019",
    "opentime": "Mon - Fri 9.00-5.30\nSat 9.00-5.00\n",
    "lat": -37.7792639,
    "lng": 144.8537689},
  {
    "id": 20,
    "name": "Helping Hands Sunshine Op Shop",
    "address": "85 Hampshire Road Sunshine",
    "opentime": "Mon - Fri 10am - 4pm\nSat 10am - 2pm\n",
    "lat": -37.789988,
    "lng": 144.8312306},
  {
    "id": 21,
    "name": "Vinnies Sunshine",
    "address": "56 Station Place, Sunshine VIC 3020",
    "opentime": "Mon - Fri 9:00 AM - 5:00 PM\nSat 9:00 AM - 3:00 PM\nSun Closed\n",
    "lat": -37.787183899999995,
    "lng": 144.8333217},
  {
    "id": 22,
    "name": "Wayside Bargain Centre - Sunshine",
    "address": "30 Withers, Sunshine VIC",
    "opentime": "Unknown\n",
    "lat": -37.785473700000004,
    "lng": 144.8341594},
  {
    "id": 23,
    "name": "Goss'n Shop",
    "address": "100 Anderson Rd Sunshine",
    "opentime": "Mon - Sat Closed\n",
    "lat": -37.786324,
    "lng": 144.8274345},
  {
    "id": 24,
    "name": "Sunshine Salvos",
    "address": "26 Withers Street, Sunshine VIC 3020",
    "opentime": "Mon - Fri 9.30.5.30\nSat 9.00-5.00\n",
    "lat": -37.78593729999999,
    "lng": 144.83432340000002},
  {
    "id": 25,
    "name": "Sunshine Hospital Opportunity Shop",
    "address": "176 Furlong Road, St Albans ",
    "opentime": "Mon - Fri 9:30am - 4:30pm\nSat 10am - 4pm\nSun 11am - 4pm\n",
    "lat": -37.75927539999999,
    "lng": 144.8171896},
  {
    "id": 26,
    "name": "Vinnies St Albans",
    "address": "71 Main Road West, St Albans VIC 3021",
    "opentime": "Mon - Fri 9:00 AM - 4:00 PM\nSat 10:00 AM - 3.00pm\n",
    "lat": -37.7442409,
    "lng": 144.7977113},
  {
    "id": 27,
    "name": "Brotherhood Deer Park",
    "address": "Shop 1, 112-116  Westwood Dr, Deer Park VIC",
    "opentime": "Mon - Fri 9.30 am to 5 pm\nSat 10 am to 3 pm\n",
    "lat": -37.761186,
    "lng": 144.755512},
  {
    "id": 28,
    "name": "Deer Park Salvos",
    "address": "Lot 2 Westwood Drive, Deer Park VIC 3023",
    "opentime": "Mon - Fri 9.00-5.30\nSat 9.00-5.00\nSun Donations only.  11-4pm\n",
    "lat": -37.7614308,
    "lng": 144.7561798},
  {
    "id": 29,
    "name": "Vinnies Altona (North)",
    "address": "99 Doherty's Road, Altona North VIC 3025",
    "opentime": "Mon - Fri 8:00 AM -  3:30 PM\nSat 9:00 AM - 4:00 PM\nSun Closed\n",
    "lat": -37.831525,
    "lng": 144.821506},
  {
    "id": 30,
    "name": "Lighthouse Laverton",
    "address": "58 Woods Street, Laverton 3028",
    "opentime": "9-5 Mon-Fri, 9-3 Sat\n",
    "lat": -37.862225,
    "lng": 144.77184},
  {
    "id": 31,
    "name": "Brotherhood Hoppers Crossing",
    "address": "19 Elm Park Drive, Hoppers Crossing VIC 3030",
    "opentime": "Mon - Sun 9.30am to 5.00pm\n",
    "lat": -37.8725672,
    "lng": 144.71988100000002},
  {
    "id": 32,
    "name": "Vinnies Hoppers Crossing",
    "address": "12/10 Costas Drive, Hoppers Crossing VIC 3029",
    "opentime": "Mon - Fri 9:00 AM - 5:00 PM\nSat 9:00 AM - 5:00 PM\nSun 10:00 AM - 5:00 \n",
    "lat": -37.8744078,
    "lng": 144.71884319999998},
  {
    "id": 33,
    "name": "Take 2 Opportunity Shop",
    "address": "Corner Heaths Road and Derrimut Road, Werribee, 3030",
    "opentime": "Wed - Fri 10am-3pm\nSat 1st Sat of Month 9am-1pm\n",
    "lat": -37.8776144,
    "lng": 144.68292130000003},
  {
    "id": 34,
    "name": "Take2 Op Shop",
    "address": "235 Derimut Rd, Hoppers Crossing",
    "opentime": "Tue - Fri 10am - 3pm\nSat 9am - 1pm\n",
    "lat": -37.8732532,
    "lng": 144.682955},
  {
    "id": 35,
    "name": "Lighthouse Hoppers Crossing",
    "address": "21/13B Elm Park Drive, Hoppers Crossing",
    "opentime": "9-5 Mon-Sat\n",
    "lat": -37.8729576,
    "lng": 144.7191089},
  {
    "id": 36,
    "name": "Salvos Store Hoppers Crossing ",
    "address": "174-180 Old Geelong Rd Hoppers Crossing 3029",
    "opentime": "Mon - Fri 9 - 5:30\nSat 9 - 5\nSun Donations Only\n",
    "lat": -37.8766721,
    "lng": 144.71507340000002},
  {
    "id": 37,
    "name": "Salvation Army Thrift Shop",
    "address": "84 Synnot St Werribee VIC 3030 Australia",
    "opentime": "Mon - Sat 9am to 5pm\n",
    "lat": -37.904680000000006,
    "lng": 144.657433},
  {
    "id": 38,
    "name": "Uniting Op Shop ",
    "address": "35 Synnot St, Werribee VIC 3030",
    "opentime": "Mon - Sat Yes\nSun no\n",
    "lat": -37.9025769,
    "lng": 144.66226909999997},
  {
    "id": 39,
    "name": "Lions on Mane",
    "address": "Princes Highway, Yarragon Vic",
    "opentime": "Mon - Tue Closed\nWed - Sun 10.00am to 4.00pm\n",
    "lat": -37.7891316,
    "lng": 144.92289399999999},
  {
    "id": 40,
    "name": "Rotary Shop Flemington",
    "address": "444 Racecourse Rd, Flemington VIC",
    "opentime": "Tue - Fri 10am - 5pm\nSat 10am - 3pm\n",
    "lat": -37.787527000000004,
    "lng": 144.92561},
  {
    "id": 41,
    "name": "St George's Parish Bargain Shop",
    "address": "302 Racecourse Road",
    "opentime": "Mon - Wed 10am - 4pm\nThu - Fri 10am - 5pm\nSat 11am - 1pm\nSun Closed\n",
    "lat": -37.788031700000005,
    "lng": 144.9305652},
  {
    "id": 42,
    "name": "Vinnies Ascot Vale",
    "address": "155 Maribyrnong Road, Ascot Vale VIC 3032",
    "opentime": "Mon - Sat 9:00 AM - 5:00 PM\nSun 10:00 AM - 4:00 PM \n",
    "lat": -37.771606,
    "lng": 144.913521},
  {
    "id": 43,
    "name": " All Saints Opportunity Shop Ascot Vale",
    "address": "215 Union Rd, Ascot Vale VIC",
    "opentime": "Mon Monday 10 to 3\nTue Tuesday 10 to 3\nWed Wednesday 10 to 3\nThu Thursday 10 to 3\nFri Friday 10 to 3\nSat Saturday 10 to 3\nSun Closed\n",
    "lat": -37.772431,
    "lng": 144.915837},
  {
    "id": 44,
    "name": "Helping Hands Centreway Op Shop",
    "address": "26 Centreway, Keilor East",
    "opentime": "Mon - Sat 10am - 4pm\n",
    "lat": -37.732265999999996,
    "lng": 144.86655},
  {
    "id": 45,
    "name": "Brotherhood Moonee Ponds",
    "address": "24 Margaret Street, Moonee Ponds",
    "opentime": "Mon - Fri 9:30am - 5:30pm\nSat 9:30am - 5pm\nSun 10am - 4pm\n",
    "lat": -37.7656307,
    "lng": 144.9197642},
  {
    "id": 46,
    "name": "Community Wardrobe",
    "address": "133 Puckle St, Moonee Ponds VIC 3039",
    "opentime": "Mon - Fri 9am - 4.45pm\nSat 10am-3.45pm\nSun Closed\n",
    "lat": -37.766807,
    "lng": 144.9200306},
  {
    "id": 47,
    "name": "Save The Children - Moonee Ponds",
    "address": "121 Puckle St, Moonee Ponds",
    "opentime": "Mon - Fri 9:30am - 4:30pm\nSat 9:30am - 3:30pm\n",
    "lat": -37.7668472,
    "lng": 144.9203547},
  {
    "id": 48,
    "name": "Moonee Ponds Red Cross",
    "address": "64 Puckle St, Moonee Ponds VIC 3039",
    "opentime": "Mon - Fri 9:30am - 5:00pm\nSat - Sun 10:00am - 4:00pm\n",
    "lat": -37.7667602,
    "lng": 144.92259919999998},
  {
    "id": 49,
    "name": "Christ Church Opportunity Shop - Essendon",
    "address": "Cnr Marco Polo St & Mt Alexander Rd, Essendon VIC",
    "opentime": "Tue - Fri 10 - 4pm\nSat 9.30 - 12.30\n",
    "lat": -37.7473561,
    "lng": 144.9119462},
  {
    "id": 50,
    "name": "St John's Uniting Church Op Shop",
    "address": "Corner Buckley Rd & Mt Alexander Street, Essendon, Vic, 3040",
    "opentime": "Tue - Wed Closed\nThu - Fri 10am-3pm\nSat 10am-1pm\nSun Closed\n",
    "lat": -37.7571777,
    "lng": 144.9186956},
  {
    "id": 51,
    "name": "Rowallen Op Shop - Essendon",
    "address": "10 Russell, Essendon VIC",
    "opentime": "Mon - Fri 10am - 4pm\nSat 10am - 12pm\n",
    "lat": -37.7554119,
    "lng": 144.91689580000002},
  {
    "id": 52,
    "name": "Niddrie Salvos",
    "address": "4/302 Keilor Road North Essendon, Niddrie VIC 3041",
    "opentime": "Mon - Fri 9.00-5.30\nSat 9.00-5.00\n",
    "lat": -37.737931599999996,
    "lng": 144.89456940000002},
  {
    "id": 53,
    "name": "Helping Hands Mission - Op Shop Clearance Centre  ",
    "address": "492 Fullarton Road, Airport West, Victoria 3042",
    "opentime": "Mon - Sat 10am to 4pm\n",
    "lat": -37.728249700000006,
    "lng": 144.8679005},
  {
    "id": 54,
    "name": "Helping Hands Mission Op Shop",
    "address": "18 Knighton Avenue, Airport West",
    "opentime": "Mon - Fri 10am - 4pm\nSat 10am - 1pm\n",
    "lat": -37.726796,
    "lng": 144.867244},
  {
    "id": 55,
    "name": "Trinos Op Shop",
    "address": "150A Cumberland Road, Pascoe Vale",
    "opentime": "Mon - Fri 9.30-3.30\nSat 9.30 am-12.00pm\nSun Closed\n",
    "lat": -37.72833050000001,
    "lng": 144.939224},
  {
    "id": 56,
    "name": "Second Sails",
    "address": "22 pascoe street",
    "opentime": "Mon - Sat 9am-4pm\n",
    "lat": -37.7150436,
    "lng": 144.93403659999998},
  {
    "id": 57,
    "name": "Glenroy Bargain Centre - Glenroy",
    "address": "88 Wheatsheaf Road, Glenroy VIC",
    "opentime": "Mon - Fri 9am-5pm\n",
    "lat": -37.706292,
    "lng": 144.91937},
  {
    "id": 58,
    "name": "Glenroy  Salvos",
    "address": "Unit 5/830 Pascoe Vale Road, Glenroy VIC 3046",
    "opentime": "Mon - Fri 9.00-5.30\nSat 9.00-5.00\n",
    "lat": -37.7034129,
    "lng": 144.9157161},
  {
    "id": 59,
    "name": "Rotary Opportunity Shop - Glenroy",
    "address": "cnr Waterloo Rd and Glenroy Rd, Glenroy VIC",
    "opentime": "Sat 9:00-12:00\n",
    "lat": -37.7059448,
    "lng": 144.9178726},
  {
    "id": 60,
    "name": "Vinnies Glenroy",
    "address": "826 Pascoe Vale Road, Glenroy VIC 3047",
    "opentime": "Mon - Fri 9:00 AM - 5:00 PM\nSat 10:00 AM - 4:00 PM\n",
    "lat": -37.703905,
    "lng": 144.915876},
  {
    "id": 61,
    "name": "Helping Hands Roxburgh Park Op Shop",
    "address": "Shop 2, 2-10 Reservoir Drive, Roxburgh Park",
    "opentime": "Mon - Fri 9:30am - 4pm\nSat 10am - 2pm\n",
    "lat": -37.6438952,
    "lng": 144.9299319},
  {
    "id": 62,
    "name": "The Bridge Op Shop - Westmeadows",
    "address": "34B Fawkner Street, Westmeadows VIC",
    "opentime": "Tue - Fri 10-3\nSat 10-12\n",
    "lat": -37.677092,
    "lng": 144.88694099999998},
  {
    "id": 63,
    "name": "St Alban's Jumble Centre - North Melbourne",
    "address": "55 Melrose Street, North Melbourne VIC",
    "opentime": "Tue - Sat 10:30-2:30\n",
    "lat": -37.79418030000001,
    "lng": 144.9416679},
  {
    "id": 64,
    "name": "Community First Op Shop",
    "address": "Queensberry Street, North Melbourne",
    "opentime": "Unknown\n",
    "lat": -37.8030584,
    "lng": 144.95007969999997},
  {
    "id": 65,
    "name": "Carlton Salvos",
    "address": "747 Nicholson Street, Carlton VIC 3053",
    "opentime": "Mon - Fri 9.30-5.30\nSat 9.00-5.00\n",
    "lat": -37.781839,
    "lng": 144.97753899999998},
  {
    "id": 66,
    "name": "Velo Cycles",
    "address": "815 Nicholson Street, Carlton North VIC 3054,",
    "opentime": "Mon - Fri 8:00am - 6:30pm\nSat - Sun 9:00am - 5:00pm\n",
    "lat": -37.7799554,
    "lng": 144.9774688},
  {
    "id": 67,
    "name": "St John's Op Shop - Brunswick West",
    "address": "494A Victoria Street, Brunswick West VIC",
    "opentime": "Sat 9:30-1:00\n",
    "lat": -37.7650826,
    "lng": 144.94436389999998},
  {
    "id": 68,
    "name": "Brunswick Style",
    "address": "169 Sydney Road, Brunswick, Vic. 3056",
    "opentime": "Mon - Fri 12pm-5:30pm\nSat - Sun 11am-5:30pm\n",
    "lat": -37.77321,
    "lng": 144.960898},
  {
    "id": 69,
    "name": "Melbourne Pet Rescue Superstore",
    "address": "17-21 David Street, Brunswick 3056",
    "opentime": "Mon - Sun 10:00 - 5:30\n",
    "lat": -37.7706905,
    "lng": 144.96221450000002},
  {
    "id": 70,
    "name": "Brunswick Salvos",
    "address": "740 Sydney Road, Brunswick VIC 3056",
    "opentime": "Mon - Fri 9.00-5.30\nSat 9.00-5.00\n",
    "lat": -37.7598833,
    "lng": 144.9635576},
  {
    "id": 71,
    "name": "Save The Children Op Shop ",
    "address": "478 Sydney Rd, Brunswick ",
    "opentime": "Mon - Sat 10am-5pm\n",
    "lat": -37.7667814,
    "lng": 144.9625388},
  {
    "id": 72,
    "name": "Savers Brunswick",
    "address": "330 Sydney Rd, Brunswick",
    "opentime": "Mon - Wed 9am - 7pm\nThu - Fri 9am - 9pm\nSat 9am - 7pm\nSun 9am-7pm\n",
    "lat": -37.770196999999996,
    "lng": 144.961764},
  {
    "id": 73,
    "name": "Vinnies Brunswick",
    "address": "107 Sydney Road, Brunswick VIC 3056",
    "opentime": "Mon - Fri 10:00 AM - 6:00 PM\nSat 9:00 AM - 5:00 PM\nSun 10:00 AM - 4:00 PM\n",
    "lat": -37.774981,
    "lng": 144.960622},
  {
    "id": 74,
    "name": "Don Bosco Brunswick Youth Foundation Inc. Opportunity Shop - Brunswick",
    "address": "368 Sydney Rd, Brunswick VIC",
    "opentime": "Mon - Fri 9:30-4:30\nSat 9:30-4:00\n",
    "lat": -37.769281,
    "lng": 144.961937},
  {
    "id": 75,
    "name": "saxon street",
    "address": "1 Saxon Street, Brunswick Vic 3056",
    "opentime": "Unknown\n",
    "lat": -37.7729967,
    "lng": 144.960138},
  {
    "id": 76,
    "name": "Brotherhood Brunswick",
    "address": "109 Brunswick Road, Brunswick",
    "opentime": "Mon - Sat 9:30am - 5pm\nSun 10am - 4pm\n",
    "lat": -37.777871000000005,
    "lng": 144.96987430000001},
  {
    "id": 77,
    "name": "Christ Church Opportunity Shop - Brunswick",
    "address": "10 Glenlyon Road, Brunswick VIC",
    "opentime": "Fri - Sat 10:00-4:00\n",
    "lat": -37.7719047,
    "lng": 144.96251719999998},
  {
    "id": 78,
    "name": "Coburg Salvos",
    "address": "452 Sydney Road, Coburg VIC 3058",
    "opentime": "Mon - Fri 9.30-5.30\nSat 9.00-5.00\n",
    "lat": -37.7427422,
    "lng": 144.96674430000002},
  {
    "id": 79,
    "name": "Vinnies Coburg",
    "address": "260 Sydney Road, Coburg VIC 3058",
    "opentime": "Mon - Fri 9:00 AM - 5:00 PM\nSat 10:00 AM - 4:00 PM\n",
    "lat": -37.7482832,
    "lng": 144.96559219999997},
  {
    "id": 80,
    "name": "Dorothy Impey Opshop",
    "address": "238 Sussex St Pascoe Vale 3058",
    "opentime": "Mon - Fri 10 - 3\nSat 915 - 1145\n",
    "lat": -37.722145000000005,
    "lng": 144.9513215},
  {
    "id": 81,
    "name": "Fawkner Salvos",
    "address": "1323 Sydney Road , Fawkner VIC 3060",
    "opentime": "Mon - Fri 9.00-5.30\nSat 9.00-5.00\n",
    "lat": -37.6991505,
    "lng": 144.95928930000002},
  {
    "id": 82,
    "name": "Save The Children - Fawkner",
    "address": "573 Mahoneys Road, Fawkner",
    "opentime": "Mon - Sun 10am - 4pm\n",
    "lat": -37.690148799999996,
    "lng": 144.9595491},
  {
    "id": 83,
    "name": "Campbellfield Salvos",
    "address": "1/850 Cooper Street, Campbellfield VIC 3061",
    "opentime": "Mon - Fri 9.00-5.00\nSat 9.00-5.00\n",
    "lat": -37.644453999999996,
    "lng": 144.95971},
  {
    "id": 84,
    "name": "Salvation Army Thrift Shop",
    "address": "2/25 Interlink Drive, Craigieburn",
    "opentime": "Mon - Fri 9am - 5pm\nSat 9am - 2pm\nSun Closed\n",
    "lat": -37.60157239999999,
    "lng": 144.9464725},
  {
    "id": 85,
    "name": "Fitzroy Salvos",
    "address": "427 Smith Street, Fitzroy VIC 3065",
    "opentime": "Mon - Sat 9.00-5.00\n",
    "lat": -37.794957700000005,
    "lng": 144.9845044},
  {
    "id": 86,
    "name": "Hunter Gatherer",
    "address": "274 Brunswick Street, Fitzroy",
    "opentime": "Mon - Sun 10:15am to 5:45pm\n",
    "lat": -37.799217,
    "lng": 144.9785561},
  {
    "id": 87,
    "name": "Anglicare Victoria Op Shop - Fitzroy",
    "address": "122 Napier Street, Fitzroy VIC",
    "opentime": "Tue 10am - 3pm\nThu 10am - 3pm\n",
    "lat": -37.8045298,
    "lng": 144.9798685},
  {
    "id": 88,
    "name": "Sacred Heart Mission, Fitzroy Op Shop",
    "address": "433 Brunswick Street, Fitzroy",
    "opentime": "Mon - Sun 10:30am - 5:30pm\n",
    "lat": -37.793962,
    "lng": 144.97900900000002},
  {
    "id": 89,
    "name": "Red Cross Collingwood",
    "address": "328 Smith St, Collingwood VIC 3066",
    "opentime": "Mon - Sat 10am - 6pm\nSun 11am - 4pm\n",
    "lat": -37.7993542,
    "lng": 144.9844388},
  {
    "id": 90,
    "name": "Vinnies Collingwood",
    "address": "121 Johnston Street, Collingwood VIC 3066",
    "opentime": "Mon - Fri 9:00 AM - 5:00 PM\nSat 11:00 AM - 4:00 PM\nSun Closed\n",
    "lat": -37.7981938,
    "lng": 144.9789136},
  {
    "id": 91,
    "name": "St Marks RECYCLED",
    "address": "298 Smith Street VIC",
    "opentime": "Mon - Fri 11:00am - 5:00pm\nSat 11:00am - 5.00pm\n",
    "lat": -37.800297,
    "lng": 144.984276},
  {
    "id": 92,
    "name": "Abbotsford Salvos",
    "address": "81 Victoria Crescent, Abbotsford VIC 3067",
    "opentime": "Mon - Fri 9.00-5.30\nSat 9.00-5.00\n",
    "lat": -37.806141700000005,
    "lng": 144.9986509},
  {
    "id": 93,
    "name": "North Fitzroy Op Shop",
    "address": "806 Nicholson St, North Fitzroy",
    "opentime": "Mon - Fri 10:30am - 5:30pm\nSat 10am - 5:30pm\nSun 10:30am - 5:30pm\n",
    "lat": -37.7805766,
    "lng": 144.978318},
  {
    "id": 94,
    "name": "TC THRIFT",
    "address": "307 High Street Northcote",
    "opentime": "Mon - Sun 10:30am - 5:30pm\n",
    "lat": -37.7712443,
    "lng": 144.9984107},
  {
    "id": 95,
    "name": "Save the Children - Northcote",
    "address": "292 High Street, Northcote VIC",
    "opentime": "Mon - Fri 9.30am - 4.30pm\nSat 9.30am - 3.30pm\n",
    "lat": -37.771584600000004,
    "lng": 144.9988465},
  {
    "id": 96,
    "name": "St Vincent De Paul Society",
    "address": "Cnr High and Separation Sts, Northcote VIC 3070",
    "opentime": "Mon - Sat 9-5\nSun 10-4\n",
    "lat": -37.7693285,
    "lng": 144.9989622},
  {
    "id": 97,
    "name": "Brotherhood Northcote",
    "address": "12a High Street, Northcote",
    "opentime": "Mon - Fri 10am - 4:30pm\nSat 10 am to 2 pm\n",
    "lat": -37.78368409999999,
    "lng": 144.99672719999998},
  {
    "id": 98,
    "name": "Kids First Op Shop",
    "address": "119 Miller Street, Thornbury Victoria",
    "opentime": "Mon - Wed 10.00am - 4.00pm\nThu - Fri 10.00am - 5.00pm\nSat - Sun 10.00am - 2.00pm\n",
    "lat": -37.7512588,
    "lng": 144.9887003},
  {
    "id": 99,
    "name": "Lions Club of Northcote - Thornbury Op Shop",
    "address": "735 High Street, Thornbury VIC",
    "opentime": "Mon - Fri 10am-2pm\nSat 9.30am-1pm\nSun closed\n",
    "lat": -37.7584938,
    "lng": 145.0002346},
  {
    "id": 100,
    "name": "Work For The Soul Penny Pinchers Op Shop Showroom",
    "address": "2 /73 Gower Street Preston",
    "opentime": "Mon - Wed 9.00 - 4.00\nThu 9.00 - 3.00\nFri 9:00 - 4:00\nSat 10.00 - 3.00\n",
    "lat": -37.7405134,
    "lng": 145.0038987},
  {
    "id": 101,
    "name": "Penny Pinchers",
    "address": "Work For The Soul VIC",
    "opentime": "Mon - Thu 8.30 - 4.00\nFri - Sat Opening soon\nSun Opening soon \n",
    "lat": -37.743041999999996,
    "lng": 145.0250524},
  {
    "id": 102,
    "name": "Preston Salvos",
    "address": "371-373 High Street, Preston VIC 3072",
    "opentime": "Mon - Fri 9.00-5.30\nSat 9.00-5.00\n",
    "lat": -37.741025,
    "lng": 145.003283},
  {
    "id": 103,
    "name": "Vinnies Preston",
    "address": "596-598 Plenty Road, Preston VIC 3072",
    "opentime": "Mon - Fri 9:00 AM - 5:00 PM\nSat 10:00 AM - 2:00 PM\nSun Closed\n",
    "lat": -37.734544,
    "lng": 145.013851},
  {
    "id": 104,
    "name": "Northern Community CareWorks Op Shop ",
    "address": "81 High St Preston, Preston",
    "opentime": "Mon - Fri 9.30 - 4.30\nSat 9.30 - 4\n",
    "lat": -37.7496625,
    "lng": 145.0017195},
  {
    "id": 105,
    "name": "Helping Hands Preston Op Shop",
    "address": "66-68 Oakover Road, Preston",
    "opentime": "Mon - Fri 10am - 4pm\nSat 10am - 2pm\n",
    "lat": -37.748805,
    "lng": 144.9933697},
  {
    "id": 106,
    "name": "All Saints Op Shop",
    "address": "239A Murray Road, Preston",
    "opentime": "Mon - Fri 9am - 4pm\nSat 9am - 12 noon\n",
    "lat": -37.738174,
    "lng": 145.00461409999997},
  {
    "id": 107,
    "name": "St George's Op Shop - Reservoir",
    "address": "30 Ralph St, Reservoir VIC",
    "opentime": "Sat 9:00-12:00\n",
    "lat": -37.714853000000005,
    "lng": 145.00441719999998},
  {
    "id": 108,
    "name": "Op Shop",
    "address": "252 Broadway  Reservoir",
    "opentime": "Mon - Fri 9.30 to 4.00pm\nSat 9.30 to 1pm\n",
    "lat": -37.7167465,
    "lng": 145.0096303},
  {
    "id": 109,
    "name": "Lalor Salvos",
    "address": "20 - 22 May Road, Lalor VIC 3075",
    "opentime": "Mon - Fri 9.00-5.30\nSat 9:00-5:00\n",
    "lat": -37.672219,
    "lng": 145.0178616},
  {
    "id": 110,
    "name": "Vinnies Epping",
    "address": "Shop 4/500 High Street, Epping VIC 3076",
    "opentime": "Mon - Fri 9:00 AM - 5:00 PM\nSat 9:00 AM - 5:00 PM\nSun  10:00 AM - 4:00\n",
    "lat": -37.658899,
    "lng": 145.020253},
  {
    "id": 111,
    "name": "Fairfield Salvos",
    "address": "300 Station Street, Fairfield VIC 3078",
    "opentime": "Mon - Fri 9.00-5.30\nSat 9.00-5.00\n",
    "lat": -37.766404,
    "lng": 145.019878},
  {
    "id": 112,
    "name": "MS Community Shop - FAIRFIELD",
    "address": "SHOP 88c STATION STREET, FAIRFIELD",
    "opentime": "Mon - Fri 9:30am - 5:00pm\nSat 10:00am - 2:00pm\n",
    "lat": -37.778175,
    "lng": 145.018027},
  {
    "id": 113,
    "name": "Brotherhood Ivanhoe",
    "address": "220 Upper Heidelberg Road, Ivanhoe",
    "opentime": "Mon - Fri 10am to 4.30pm\nSat 10am to 1pm\nSun CLOSED\n",
    "lat": -37.767232899999996,
    "lng": 145.0446434},
  {
    "id": 114,
    "name": "St George's Anglican Church Op Shop - Ivanhoe East",
    "address": "46 Warncliffe Rd, Ivanhoe East VIC",
    "opentime": "Wed - Fri 10-4pm\nSat 9.30-12noon\n",
    "lat": -37.773960100000004,
    "lng": 145.06006269999997},
  {
    "id": 115,
    "name": "Heidelberg Salvos",
    "address": "154 Bell Street, Heidelberg Heights VIC 3081",
    "opentime": "Mon - Sat 9.00-5.00\n",
    "lat": -37.7526487,
    "lng": 145.0507372},
  {
    "id": 116,
    "name": "Austin Health Heidelberg Op Shop",
    "address": "12 The Mall  Heidelberg West 3081",
    "opentime": "Mon - Fri 10am - 3pm\nSat 10am - 1:30pm\n",
    "lat": -37.74961679999999,
    "lng": 145.042641},
  {
    "id": 117,
    "name": "Kool-se",
    "address": "Shop 61 The Mall Heidelberg West",
    "opentime": "Mon - Fri 10-3\nSat 10-1\n",
    "lat": -37.748226,
    "lng": 145.042472},
  {
    "id": 118,
    "name": "Vinnies Heidelberg West",
    "address": "40-44 The Mall, Heidelberg West VIC 3081",
    "opentime": "Mon - Sat 9:00 AM - 5:00 PM\nSun Closed\n",
    "lat": -37.74878,
    "lng": 145.04274099999998},
  {
    "id": 119,
    "name": "Salvos",
    "address": "3 McLean Rd Bundoora",
    "opentime": "Sun Closed \n",
    "lat": -37.694657799999995,
    "lng": 145.0590554},
  {
    "id": 120,
    "name": "Kids First Op Shop",
    "address": "43 Beetham Pde, Rosanna",
    "opentime": "Mon - Fri 10am - 4pm\nSat 10.00am - 1.00pm\nSun CLOSED\n",
    "lat": -37.74395,
    "lng": 145.06571399999999},
  {
    "id": 121,
    "name": "St Andrew's Anglican Church Opportunity Shop - Macleod",
    "address": "76 Aberdeen Street, Macleod VIC",
    "opentime": "Sat 10:00-12:00\n",
    "lat": -37.72620379999999,
    "lng": 145.0708089},
  {
    "id": 122,
    "name": "New to You BANSIC Op Shop",
    "address": "2/76 Aberdeen St macleod",
    "opentime": "Mon Closed\nTue 9:30am -4pm\nWed 9:30 am- 4pm\nThu - Fri 9:30am - 4pm\nSat 9:00am - 1pm\nSun Closed\n",
    "lat": -37.72620379999999,
    "lng": 145.0708089},
  {
    "id": 123,
    "name": "Strathalan Opportunity Shop - Macleod",
    "address": "2-34 Erskine Rd, Macleod VIC",
    "opentime": "Unknown\n",
    "lat": -37.7286558,
    "lng": 145.0779891},
  {
    "id": 124,
    "name": "Diamond Valley Community Op Shop",
    "address": "44 Aberdeen Road, Macleod Vic 3085",
    "opentime": "Mon - Fri 9.30am - 4.30pm\nSat 9.30am - 1.00pm\n",
    "lat": -37.7271679,
    "lng": 145.07049650000002},
  {
    "id": 125,
    "name": "Red Cross - Watsonia",
    "address": "75 Watsonia Rd, Watsonia VIC",
    "opentime": "Mon-Fri 10:00-4:30\nSat 10:00-1:00\n",
    "lat": -37.7096,
    "lng": 145.082511},
  {
    "id": 126,
    "name": "Watsonia Salvos",
    "address": "Shop 3, 103 Watsonia Road, Watsonia VIC 3087",
    "opentime": "Mon - Fri 9.00-5.30\nSat 9.00-5.00\n",
    "lat": -37.70856,
    "lng": 145.082806},
    {
    "id": 127,
    "name": "Brotherhood Watsonia",
    "address": "78 Watsonia Rd, Watsonia",
    "opentime": "Mon - Fri 9am - 4pm\nSat 9:30am - 12pm\n",
    "lat": -37.7099365,
    "lng": 145.0831729},
    {
    "id": 128,
    "name": "Vinnies Briar Hill",
    "address": "23 Sherbourne Road, Briar Hill VIC 3088",
    "opentime": "Mon - Fri 9:00 AM - 5:00 PM\nSat 10:00 AM - 2:00 PM\nSun Closed\n",
    "lat": -37.710152,
    "lng": 145.117504},
    {
    "id": 129,
    "name": "SJOG Greensborough",
    "address": "Shop 15, Apollo Park Way Shopping Centre,  29 Civic Drive, Greensborough",
    "opentime": "Mon - Fri 9am - 4pm\nSat 1st of each month 9am - 1pm\n",
    "lat": -37.687754299999995,
    "lng": 145.1082059},
    {
    "id": 130,
    "name": "Savers Greensborough",
    "address": "Shop 7, 108-114 Main St, Greensborough",
    "opentime": "Mon - Wed 9am - 7pm\nThu - Fri 9am - 9pm\nSat - Sun 9am - 7pm\n",
    "lat": -37.7029254,
    "lng": 145.10581619999996},
    {
    "id": 131,
    "name": "Brotherhood Greensborough",
    "address": "Rear Shop 6, Cnr Main Street and Para Road, Greensborough",
    "opentime": "Mon - Fri 9am - 4pm\nSat 9am to 12:30pm\n",
    "lat": -37.7030211,
    "lng": 145.10602580000003},
    {
    "id": 132,
    "name": "RSPCA greensborough ",
    "address": "87 Main Street greensborough ",
    "opentime": "Mon - Fri 10-4:00\nSat 10-2 \nSun Not open\n",
    "lat": -37.7026393,
    "lng": 145.1052229},
    {
    "id": 133,
    "name": "Diamond Creek - Austin Health Opportunity Shop",
    "address": "42-44 Main Hurtsbridge Rd, Diamond Creek VIC",
    "opentime": "Mon - Sat 9:30 am to 4pm\n",
    "lat": -37.674485,
    "lng": 145.157421},
    {
    "id": 134,
    "name": "Epic Treasure Trove - Diamond Creek",
    "address": "42 Chute St, Diamond Creek VIC",
    "opentime": "Mon-Fri 10:00-4:30\nSat 10:00-12:30\n",
    "lat": -37.673254,
    "lng": 145.151574},
    {
    "id": 135,
    "name": "Brotherhood Eltham Mall",
    "address": "10 Arthur Street, Eltham",
    "opentime": "Mon - Fri 9am - 4:30pm\nSat 9.30 am to 1 pm\n",
    "lat": -37.714637100000004,
    "lng": 145.1496324},
    {
    "id": 136,
    "name": "Hurstbridge Op Shop - Hurstbridge",
    "address": "958 Main Rd, Hurstbridge VIC",
    "opentime": "Wed - Sat 9am - 4pm\n",
    "lat": -37.63756370000001,
    "lng": 145.1943947},
    {
    "id": 137,
    "name": "Kew Salvos",
    "address": "243 - 247 High Street, Kew",
    "opentime": "Mon - Fri 9.00am - 5.30pm\nSat 9.00am - 5.00pm\n",
    "lat": -37.805687,
    "lng": 145.033357},
    {
    "id": 138,
    "name": "MS Community Shop Kew",
    "address": "290 High Street Kew VIC 3101",
    "opentime": "Mon - Fri 9:30am - 5:00pm\nSat 9:30am - 2:00pm\n",
    "lat": -37.8054978,
    "lng": 145.0349331},
    {
    "id": 139,
    "name": "Fair Trade &amp;amp; Gift Shop",
    "address": "650 High Street, Kew East, Vic 3102",
    "opentime": "Mon Monday 9.30am - 4.30pm\nTue Tuesday 9.30am - 4.30pm\nWed Wednesday 9.30am - 4.30pm\nThu Thursday 9.30am - 4.30pm\nFri Friday 9.30am - 4.30pm\nSat Saturday 9.30am - 4.00pm\nSun Closed\n",
    "lat": -37.799009000000005,
    "lng": 145.051774},
    {
    "id": 140,
    "name": "Vinnies Kew East",
    "address": "735 High St, Kew East VIC 3102",
    "opentime": "Mon - Sat 9am-5pm\nSun 10am-5pm\n",
    "lat": -37.797109999999996,
    "lng": 145.055219},
    {
    "id": 141,
    "name": "Balwyn Salvos",
    "address": "307 Whitehorse Road, Balwyn VIC 3103",
    "opentime": "Mon - Sat 9.00-5.00\n",
    "lat": -37.812469,
    "lng": 145.079523},
    {
    "id": 142,
    "name": "VMCH Balwyn Opportunity Shop",
    "address": "463 Whitehorse Road, Balwyn, Melbourne, Victoria",
    "opentime": "Mon - Fri 9.30am - 4pm\nSat 9.30am - 1pm\nSun Closed\n",
    "lat": -37.813264600000004,
    "lng": 145.086275},
    {
    "id": 143,
    "name": "Doncare Opportunity Shop Bulleen Plaza",
    "address": "2a bulleen plaza, Manningham road, bulleen",
    "opentime": "Mon - Fri 9:30 am-5:00 pm\nSat 10:00 am - 2:00 pm\n",
    "lat": -37.7658333,
    "lng": 145.0916667},
    {
    "id": 144,
    "name": "Doncare Opportunity Shop - Bulleen Plaza ",
    "address": "Shop 2A, Bulleen Plaza Shopping Centre Manningham Road",
    "opentime": "Mon - Fri 9am-5pm\nSat 10am-2pm\n",
    "lat": -37.7658333,
    "lng": 145.0916667},
    {
    "id": 145,
    "name": "Doncare Opportunity Shop - Templestowe Village",
    "address": "Shop 23 (Rear) Anderson Street, Templestowe VIC",
    "opentime": "Mon - Fri 10:00-4:00\nSat 10:00-12:30\n",
    "lat": -37.757492,
    "lng": 145.12974499999999},
    {
    "id": 146,
    "name": "Doncare Opportunity Shop - Macedon Plaza",
    "address": "Shop 4, Macedon Plaza, Cnr. Manningham Rd and High Street, Lower Templestowe-",
    "opentime": "Mon - Fri 10am - 5pm\nSat 10am - 2pm\n",
    "lat": -37.77294439999999,
    "lng": 145.1132278},
    {
    "id": 147,
    "name": "Doncare Opportunity Shop - Templestowe Village",
    "address": "Cnr Manningham Rd and High Street, Lower Templestowe VIC",
    "opentime": "Mon - Fri 10am-4pm\nSat 10am-12.30pm\n",
    "lat": -37.7738092,
    "lng": 145.1142301},
    {
    "id": 148,
    "name": "Doncaster East Red Cross",
    "address": "Shop 67B Tunstall Square\tDoncaster East\tVIC 3109",
    "opentime": "Mon - Sat 9:30am - 5:00pm\n",
    "lat": -37.7906677,
    "lng": 145.1722291},
    {
    "id": 149,
    "name": "Doncare Opportunity Shops Jackson Court",
    "address": "70 Jackson Court, doncaster east",
    "opentime": "Mon - Fri 9:30 am-4:30 pm\nSat 10:00 am - 2:00 pm\n",
    "lat": -37.788754,
    "lng": 145.148488},
    {
    "id": 150,
    "name": "Rotary Rummage Shop",
    "address": "8 Mitchell St, Jackson Court, East Doncaster",
    "opentime": "Unknown\n",
    "lat": -37.787843,
    "lng": 145.14842},
    {
    "id": 151,
    "name": "Doncaster Salvos",
    "address": "916C Doncaster Road, Doncaster VIC 3109",
    "opentime": "Mon - Fri 9.00-5.30\nSat 9.00-5.00\n",
    "lat": -37.788044,
    "lng": 145.150323},
    {
    "id": 152,
    "name": "Doncare Opportunity Shop - Tunstall Square",
    "address": "34 Tunstall Square, Doncaster East, Victoria, 3109",
    "opentime": "Mon - Fri 9.30am-4.30pm\nSat 10am - 1.30pm\n",
    "lat": -37.7920487,
    "lng": 145.17003069999998},
    {
    "id": 153,
    "name": "Rotary Op Shop - Warrandyte",
    "address": "266 Yarra Street",
    "opentime": "Mon - Sun 10am - 4pm\n",
    "lat": -37.73745,
    "lng": 145.223894},
    {
    "id": 154,
    "name": "Lions Opportunity Shop - Warrandyte",
    "address": "168 Yarra Street, Warrandyte VIC",
    "opentime": "Mon - Fri 10:30am - 4:30pm\nSat - Sun 11am - 5pm\n",
    "lat": -37.7377255,
    "lng": 145.21959719999998},
    {
    "id": 155,
    "name": "Richmond Red Cross",
    "address": "120 Swan Street, Richmond, 3121",
    "opentime": "Mon - Fri 10am - 5pm\nSat 10am - 3pm\n",
    "lat": -37.8253864,
    "lng": 144.99381330000003},
    {
    "id": 156,
    "name": "St Bart's Op Shop",
    "address": "St Bartholomew's Anglican Church Hall, 290 Burnley Street, Richmond, Victoria, 3121",
    "opentime": "Mon - Sat 10.00am to 4.00pm\nSun Not open\n",
    "lat": -37.8233875,
    "lng": 145.0073907},
    {
    "id": 157,
    "name": "Red Cross",
    "address": "191 Bridge Road VIC",
    "opentime": "Mon - Thu 10am - 6pm\nFri 10am - 7pm\nSat 10am - 6pm\nSun 11am - 5pm\n",
    "lat": -37.818081,
    "lng": 144.996199},
    {
    "id": 158,
    "name": "salvos",
    "address": "42-48 Victoria st. Richmond VIC",
    "opentime": "Unknown\n",
    "lat": -37.809946999999994,
    "lng": 144.993124},
    {
    "id": 159,
    "name": "Storehouse thrift",
    "address": "199 Bridge Rd Richmond",
    "opentime": "Mon 10:30am -5:30pm\nTue - Sun 10:30am - 5:30pm\n",
    "lat": -37.818105200000005,
    "lng": 144.996404},
    {
    "id": 160,
    "name": "Hawthorn Red Cross",
    "address": "764 Glenferrie Rd, Hawthorn VIC 3122",
    "opentime": "Mon - Thu 9:30am - 5:30pm\nFri 9:30am - 6:00pm\nSat 9:30am - 5:00pm\nSun 12:00am - 4:00pm\n",
    "lat": -37.818614000000004,
    "lng": 145.03628500000002},
    {
    "id": 161,
    "name": "Vinnies Hawthorn",
    "address": "254 Auburn Road, Hawthorn VIC 3122",
    "opentime": "Mon - Sat 9am - 5pm\nSun 10am - 4pm\n",
    "lat": -37.828578,
    "lng": 145.043679},
    {
    "id": 162,
    "name": "Sacred Heart Mission - Hawthorn",
    "address": "86 Riversdale Road (corner of Glenferrie Road) Hawthorn",
    "opentime": "Mon - Fri 10am - 5:30pm\nSat - Sun  10am - 5.30pm\n",
    "lat": -37.828875,
    "lng": 145.03391100000002},
    {
    "id": 163,
    "name": "Hawthorn Salvos",
    "address": "183 Burwood Road, Hawthorn  VIC 3122",
    "opentime": "Mon - Fri 9am - 5:30pm\nSat 9am - 5pm\n",
    "lat": -37.821709000000006,
    "lng": 145.0290557},
    {
    "id": 164,
    "name": "Epic Treasure Trove - Hawthorn",
    "address": "111 Auburn Rd, Hawthorn VIC",
    "opentime": "Mon-Fri 10:00-4:30\nSat 10:00-3:00\n",
    "lat": -37.8228278,
    "lng": 145.04518169999997},
    {
    "id": 165,
    "name": "Animal Liberation - Burwood",
    "address": "1355 Toorak Rd, Burwood VIC",
    "opentime": "Mon - Fri 10:30a - 4:30p\nSat 11a - 4pm\nSun 10:30a - 4:30p\n",
    "lat": -37.8499312,
    "lng": 145.0927697},
    {
    "id": 166,
    "name": "Boroondara Central Lions Op Shop",
    "address": "1350C Toorak Road, Camberwell, Victoria, 3124",
    "opentime": "Mon - Thu 10.30 am to 4.30 pm\nFri 10.30 am to 4.00 pm\nSat 9.30 am to 12.30 pm\nSun Closed\n",
    "lat": -37.8502169,
    "lng": 145.0923191},
    {
    "id": 167,
    "name": "Salvos - Camberwell",
    "address": "529 Riversdale Road, Camberwell VIC 3124",
    "opentime": "Mon - Fri 9.00-5.30\nSat 9.00-5.00\n",
    "lat": -37.831387,
    "lng": 145.05821699999998},
    {
    "id": 168,
    "name": "Camberwell Red Cross",
    "address": "Shop B / 666 Bourke Road, Camberwell VIC 3124",
    "opentime": "Mon - Sat 9:30am - 5:30pm\nSun 11:00am - 5:00pm\n",
    "lat": -37.82858,
    "lng": 145.057427},
    {
    "id": 169,
    "name": "MISSION OP SHOP",
    "address": "126 Canterbury Rd, Bayswater North VIC 3153",
    "opentime": "Mon - Fri 10:00am to 4:00pm\nSat 10:00am to 2:00pm\nSun Closed\n",
    "lat": -37.8245888,
    "lng": 145.2902468},
    {
    "id": 170,
    "name": "Vinnies Mont Albert",
    "address": "24 Hamilton Street, Mont Albert VIC 3127",
    "opentime": "Mon - Fri 9:30 AM - 4:00 PM\nSat 9:30 AM - 12:00 PM\nSun Closed\n",
    "lat": -37.8205719,
    "lng": 145.105309},
    {
    "id": 171,
    "name": "Kindilan Op Shop - Mont Albert",
    "address": "9 Hamilton St, Mont Albert VIC",
    "opentime": "Mon - Fri 10am - 5pm\nSat 9:30am - 12:30pm\n",
    "lat": -37.8203013,
    "lng": 145.1049919},
    {
    "id": 172,
    "name": "Rotary Recycle",
    "address": "1113 Riversdale Road, Surrey Hills",
    "opentime": "Mon Closed\nTue - Fri 10am - 4pm\nSat 10am - 1pm \nSun Closed\n",
    "lat": -37.8373888,
    "lng": 145.1105354},
    {
    "id": 173,
    "name": "Rotary Recycle",
    "address": "1113 Riversdale Road, Surrey Hills ",
    "opentime": "Mon Closed\nTue - Fri 10am - 4pm\nSat 10am - 1pm\nSun Closed\n",
    "lat": -37.8373888,
    "lng": 145.1105354},
    {
    "id": 174,
    "name": "Alkira Op Shop",
    "address": "3 Thurston St, Box Hill",
    "opentime": "Tue - Fri 10-3pm\n",
    "lat": -37.8207458,
    "lng": 145.1193924},
    {
    "id": 175,
    "name": "Doncare Opportunity Shop - North Blackburn",
    "address": "Shop 38, North Blackburn Shopping Centre, Springfield Road, North Blackburn VIC",
    "opentime": "Mon - Fri  9:00-5:30\nSat 9:00-5:00\n",
    "lat": -37.8110588,
    "lng": 145.1528934},
    {
    "id": 176,
    "name": "Epilepsy Op Shop Blackburn",
    "address": "82 South Pde, Blackburn VIC",
    "opentime": "Mon - Fri 9:30-4:30\nSat 9:30-2:30\nSun 10:30-2:30\n",
    "lat": -37.820677,
    "lng": 145.150906},
    {
    "id": 177,
    "name": "Rotary Recycled Treasures",
    "address": "113 Canterbury Rd, Blackburn Sth, 3130",
    "opentime": "Mon - Fri 10am-4pm\nSat 9:30am-12:30pm\n",
    "lat": -37.831483,
    "lng": 145.14690900000002},
    {
    "id": 178,
    "name": "Animal Aid Op Shop",
    "address": "130 Canterbury Rd, Blackburn Sth",
    "opentime": "Mon closed\n",
    "lat": -37.832031,
    "lng": 145.147952},
    {
    "id": 179,
    "name": "MISSION OP SHOP",
    "address": "126B Canterbury Road, Blackburn South",
    "opentime": "Mon - Fri 10AM to 4PM\nSat 10AM to 1PM\n",
    "lat": -37.832121,
    "lng": 145.14752109999998},
    {
    "id": 180,
    "name": "YES OP Shop",
    "address": "55. Mahoneys Road. Forest Hill. 3131",
    "opentime": "Mon - Fri 9.30am-5pm\nSat 9.30am-4pm\nSun Closed\n",
    "lat": -37.83566500000001,
    "lng": 145.166497},
    {
    "id": 181,
    "name": "This N That Community Store",
    "address": "25 Brentford Square, Canterbury Rd, Forest Hill",
    "opentime": "Mon - Fri 10am - 4pm\nSat 10am - 2pm\nSun CLOSED\n",
    "lat": -37.836976299999996,
    "lng": 145.1832029},
    {
    "id": 182,
    "name": "Forest Hill Salvos",
    "address": "39 Mahoneys Road, Forest Hill VIC 3131",
    "opentime": "Mon - Fri 9.30-5.30\nSat 9.00-5.00\n",
    "lat": -37.835260999999996,
    "lng": 145.166621},
    {
    "id": 183,
    "name": "Uniting Op Shop",
    "address": "333a Canterbury Road, Forest Hill",
    "opentime": "Mon Closed\nTue - Sat 9.30am-1.00pm\nSun Closed\n",
    "lat": -37.834748,
    "lng": 145.178065},
    {
    "id": 184,
    "name": "Harrison Community Services Op Shop - Nunawading",
    "address": "293 Springfield Road, Nunawading VIC",
    "opentime": "Mon-Fri 10:00-4:00\nSat 10:00-1:00\n",
    "lat": -37.812468,
    "lng": 145.17197019999998},
    {
    "id": 185,
    "name": "Nunawading Salvos",
    "address": "132-142 Springvale Road, Nunawading VIC 3131",
    "opentime": "Mon - Sat 9.00-5.00\n",
    "lat": -37.819137299999994,
    "lng": 145.1754003},
    {
    "id": 186,
    "name": "ADRA Op Shop - Mitcham",
    "address": "37 Enterprise Way, Mitcham VIC",
    "opentime": "Mon-Thu 10am - 4pm; Fri 10am - 3pm\n",
    "lat": -37.8158039,
    "lng": 145.1932291},
    {
    "id": 187,
    "name": "All Sorts",
    "address": "18 Edward St, Mitcham, Victoria 3132",
    "opentime": "Tue - Thu 9:30am - 3.30pm\n",
    "lat": -37.8160037,
    "lng": 145.1912737},
    {
    "id": 188,
    "name": "Rotary Clothesline",
    "address": "432 Mitcham Rd Mitcham 3132",
    "opentime": "Mon - Fri 10:00 am to 4:00 pm\nSat 10:00 am to 12:30 pm\nSun Closed\n",
    "lat": -37.817279600000006,
    "lng": 145.1933788},
    {
    "id": 189,
    "name": "New Beginnings Op Shop - Vermont",
    "address": "8 Boronia Rd, Vermont VIC",
    "opentime": "Tue 9:30am - 2pm\nThu 9:30am - 2pm\nSat 10am - 1pm\n",
    "lat": -37.836577399999996,
    "lng": 145.1954366},
    {
    "id": 190,
    "name": "Harrison Community Services Op Shop - Vermont",
    "address": "6 Boronia Road, Vermont VIC",
    "opentime": "Mon-Fri 10:00-4:00\nSat 10:00-1:00\n",
    "lat": -37.836489799999995,
    "lng": 145.1953935},
    {
    "id": 191,
    "name": "Salvation Army - Ringwood",
    "address": "71 Maroondah Hwy, Ringwood VIC 3134",
    "opentime": "Mon - Fri 9.00-5.30\nSat 9.00-5.00\n",
    "lat": -37.8168893,
    "lng": 145.2219205},
    {
    "id": 192,
    "name": "Vinnies Ringwood",
    "address": "2/82 Maroondah Highway, Ringwood VIC 3134",
    "opentime": "Mon - Fri 9:00 AM - 5:00 PM\nSat 9:00 AM - 5:00 PM \nSun 10:00 AM - 5:00\n",
    "lat": -37.809771999999995,
    "lng": 145.239582},
    {
    "id": 193,
    "name": "Savers",
    "address": "79-83 Maroondah Hwy, Ringwood, VIC.",
    "opentime": "Mon - Wed 9am - 7pm\nThu - Fri 9am - 9pm\nSat 9am - 6pm\nSun 10am - 6pm\n",
    "lat": -37.816839200000004,
    "lng": 145.22287419999998},
    {
    "id": 194,
    "name": "Baby Direct Ringwood Store",
    "address": "160 Maroondah Highway, Ringwood, Victoria",
    "opentime": "Mon - Sun 10am-5pm\n",
    "lat": -37.81335120000001,
    "lng": 145.23468180000003},
    {
    "id": 195,
    "name": "Heathmont Inter Church Help OpShop",
    "address": "136 Canterbury Road, Heathmont, Victoria 3135",
    "opentime": "Mon - Fri 10am-4pm\nSat 9am - 12pm\nSun Closed\n",
    "lat": -37.8282557,
    "lng": 145.2468628},
    {
    "id": 196,
    "name": "Villa Opportunity Shop",
    "address": "184 Canterbury Rd, Heathmont",
    "opentime": "Mon - Fri 10am-4pm\nSat 9am-4pm\n",
    "lat": -37.8293523,
    "lng": 145.24584230000002},
    {
    "id": 197,
    "name": "SJOG Burnt Bridge",
    "address": "Shop 10, Burnt Bridge Shopping Centre, 434 Maroondah Hwy, Ringwood",
    "opentime": "Mon - Fri 9am - 4pm\nSat 9am - 1pm\n",
    "lat": -37.7969391,
    "lng": 145.25658719999998},
    {
    "id": 198,
    "name": "EACH Opportunity Plus",
    "address": "77 Bedford Road RINGWOOD",
    "opentime": "Mon 9:00am - 4.000m\nTue - Fri 9:00am - 4:00pm\nSat 9:00am - 1:00pm\nSun CLOSED\n",
    "lat": -37.818603,
    "lng": 145.243217},
    {
    "id": 199,
    "name": "Vinnies Croydon",
    "address": "38-42 Main Street, Croydon VIC 3136",
    "opentime": "Mon - Sat 9:00 AM - 5:00 PM\n",
    "lat": -37.794731,
    "lng": 145.282408},
    {
    "id": 200,
    "name": "Red Cross - Croydon",
    "address": "114 Main St, Croydon VIC",
    "opentime": "Mon - Sat 9am - 5 pm\nSun closed\n",
    "lat": -37.7965958,
    "lng": 145.28126640000002},
    {
    "id": 201,
    "name": "Croydon Salvos",
    "address": "104 Main Street, Croydon VIC 3136",
    "opentime": "Mon - Fri 9.00-5.30\nSat 9.00-5.00\n",
    "lat": -37.79639210000001,
    "lng": 145.2813413},
    {
    "id": 202,
    "name": "SJOG Croydon",
    "address": "33 The Mall, Croydon South",
    "opentime": "Mon - Fri 9:30am - 4pm\nSat 9:30am - 12:30pm\n",
    "lat": -37.81174559999999,
    "lng": 145.27015590000002},
    {
    "id": 203,
    "name": "A Peace of Heaven Community Centre Op Shop",
    "address": "Rear building of 6-18 Lincoln road , Croydon Victoria",
    "opentime": "Thu 10am - 4pm\nFri  10am - 4pm\n",
    "lat": -37.7838019,
    "lng": 145.2849008},
    {
    "id": 204,
    "name": "Brotherhood Kilsyth",
    "address": "235 Colchester Road, Kilsyth",
    "opentime": "Mon - Fri 9.30am to 5pm\nSat 9 am to 5 pm\n",
    "lat": -37.8220159,
    "lng": 145.30471599999998},
    {
    "id": 205,
    "name": "Vinnies",
    "address": "Vinnie's,  Colchester Rd & Canterbury Rd Intersection",
    "opentime": "Unknown\n",
    "lat": -37.821762,
    "lng": 145.30493959999998},
    {
    "id": 206,
    "name": "ReStore - Habitat for Humanity ",
    "address": "Factory 2, 128 Canterbury Road, Kilsyth South VICTORIA",
    "opentime": "Mon - Fri 9am - 4.30pm\nSat 10am - 1pm\n",
    "lat": -37.82125,
    "lng": 145.308483},
    {
    "id": 207,
    "name": "Kilsyth Salvos",
    "address": "239 Colchester Road, Kilsyth VIC 3137",
    "opentime": "Mon - Fri 9.00-5.30\nSat 9.00-5.00\nSun 11.00-3.00\n",
    "lat": -37.822358,
    "lng": 145.30453899999998},
    {
    "id": 208,
    "name": " Lions club Op shop",
    "address": "50 Manchester Rd Mooroolbark 3138",
    "opentime": "Unknown\n",
    "lat": -37.7859566,
    "lng": 145.3111739},
    {
    "id": 209,
    "name": "Secondhand Heaven - Mooroolbark",
    "address": "224 Hull Road, Mooroolbark VIC",
    "opentime": "Mon 12:30 - 3:00\nTue - Wed 10:00 - 3:00\nThu - Sun Closed\n",
    "lat": -37.788154999999996,
    "lng": 145.3135283},
    {
    "id": 210,
    "name": "Salvation army family store",
    "address": "111/91 Brice Avenue, Mooroolbark VIC 3138",
    "opentime": "Unknown\n",
    "lat": -37.785377000000004,
    "lng": 145.315766},
    {
    "id": 211,
    "name": "St John of God Accord - Wandin",
    "address": "6 Union Road, Wandin VIC",
    "opentime": "Mon-Fri 9:30-4:00\nSat 9:30-12:00\n",
    "lat": -37.781133399999995,
    "lng": 145.42703410000001},
    {
    "id": 212,
    "name": "Lilydale C I C Op Shop - Lilydale",
    "address": "12 William St, Lilydale VIC",
    "opentime": "Unknown\n",
    "lat": -37.7835379,
    "lng": 145.355563},
    {
    "id": 213,
    "name": "Lilydale Salvos",
    "address": "230 - 232 Main Street, Lilydale VIC 3140",
    "opentime": "Mon - Fri 9.30-5.30\nSat 9.00-1.00\n",
    "lat": -37.758007,
    "lng": 145.35120700000002},
    {
    "id": 214,
    "name": "CIS Yarra Ranges Op-shop",
    "address": "19 Hutchinson Street, Lilydale",
    "opentime": "Mon - Fri 10-4\nSat 10-1\nSun closed\n",
    "lat": -37.758342,
    "lng": 145.34814599999999},
    {
    "id": 215,
    "name": "Golden Opportunity Shop - Lilydale",
    "address": "5/10 William Street, Lilydale VIC",
    "opentime": "Sat 10:00-12:00\n",
    "lat": -37.758,
    "lng": 145.35},
    {
    "id": 216,
    "name": "Vinnies Lilydale",
    "address": "250 Main Street, Lilydale VIC 3140",
    "opentime": "Mon - Fri 9:00 AM - 5:00 PM\nSat 9:00 AM - 2:00 PM\nSun Closed\n",
    "lat": -37.757963000000004,
    "lng": 145.351935},
    {
    "id": 217,
    "name": "The Mustard Tree",
    "address": "3/28 John Street Lilydale VIC 3140",
    "opentime": "Mon - Fri 10-3\nSat 10-1\n",
    "lat": -37.758204,
    "lng": 145.346484},
    {
    "id": 218,
    "name": "The Treasure Chest",
    "address": "24B John Street, Lilydale VIC",
    "opentime": "Mon - Fri 9:00am - 4:30pm\nSat 10:00am -1:00pm\n",
    "lat": -37.758225200000005,
    "lng": 145.3456998},
    {
    "id": 219,
    "name": "Toorak Opportunity Shop - Toorak",
    "address": "143 Canterbury Rd, Toorak VIC",
    "opentime": "Unknown\n",
    "lat": -37.842198700000004,
    "lng": 145.01038219999998},
    {
    "id": 220,
    "name": "mecwacare Malvern Op Shop",
    "address": "136 Wattletree Rd, Malvern VIC",
    "opentime": "Mon to Fri 10am - 5pm\nSat 10am - 4pm\n",
    "lat": -37.8625911,
    "lng": 145.028905},
    {
    "id": 221,
    "name": "Malvern Salvos",
    "address": "234 Glenferrie Road, Malvern VIC 3144",
    "opentime": "Mon - Fri 9.00-5.30\nSat 9.00-5.00\nSun 12-4 for donations only\n",
    "lat": -37.858382,
    "lng": 145.029217},
    {
    "id": 222,
    "name": "Vinnies Malvern",
    "address": "29-31 Glenferrie Road, Malvern VIC 3144",
    "opentime": "Mon - Fri 9:00 AM - 6:00 PM\nSat 9:00 AM - 5:00 PM\nSun 10:00 AM - 4:00 \n",
    "lat": -37.8652,
    "lng": 145.02750569999998},
    {
    "id": 223,
    "name": "St James Op Shop - Tooronga",
    "address": "1378 Malvern Road, Tooronga VIC",
    "opentime": "Mon - Fri 10am-4pm\nSat 10am-12pm\n",
    "lat": -37.853311,
    "lng": 145.041775},
    {
    "id": 224,
    "name": "MS Malvern ",
    "address": "207 Glenferrie Road Malvern VIC 3144",
    "opentime": "Mon - Fri 9:30am - 5:00pm\nSat 9:00am - 3:00pm\n",
    "lat": -37.859202,
    "lng": 145.02865},
    {
    "id": 225,
    "name": "mecwacare East Malvern Op Shop",
    "address": "299 Waverley Rd, East Malvern VIC",
    "opentime": "Mon-Fri 10:00-4:30\nSat 10:00-1:00\n",
    "lat": -37.8770741,
    "lng": 145.0585435},
    {
    "id": 226,
    "name": "East Malvern Salvos Thrift Shop",
    "address": "305 Waverley Road East Malvern",
    "opentime": "Mon - Tue 9.30 -4.30\nWed 9.30 - 4.30\nThu - Fri 9.30 - 5.00\nSat 9.30 -1.00\nSun closed\n",
    "lat": -37.877085,
    "lng": 145.058722},
    {
    "id": 227,
    "name": "Camberwell Salvos Thrift Shop",
    "address": "401 -403 High Street Ashburton",
    "opentime": "Mon - Fri 8.30 -4.30\nSat 9.00 -1.00\nSun closed\n",
    "lat": -37.86463699999999,
    "lng": 145.092151},
    {
    "id": 228,
    "name": "Vinnies Ashburton",
    "address": "386 Warrigal Rd Ashburton",
    "opentime": "Mon - Sat 9:00 AM - 5:00 PM\nSun 10:00am - 4:00PM\n",
    "lat": -37.8644997,
    "lng": 145.09265190000002},
    {
    "id": 229,
    "name": "Ashburton Salvos",
    "address": "203 High Street, Ashburton VIC 3147",
    "opentime": "Mon - Fri 9.30-5.30\nSat 9.00-5.00\n",
    "lat": -37.8628221,
    "lng": 145.0767645},
    {
    "id": 230,
    "name": "Ashy Op Shop",
    "address": "285b High St, Ashburton VIC",
    "opentime": "Mon - Fri 10:00am-4:30pm\nSat 9:30am-4:00pm\n",
    "lat": -37.8631352,
    "lng": 145.0810619},
    {
    "id": 231,
    "name": "Amaroo Op Shop - Chadstone",
    "address": "34 Amaroo St, Chadstone VIC",
    "opentime": "Unknown\n",
    "lat": -37.8791283,
    "lng": 145.0996971},
    {
    "id": 232,
    "name": "Lions Club Of Waverley Inc Opportunity Shop - Mt Waverley",
    "address": "55 Wadham Pde, Mt Waverley VIC",
    "opentime": "Mon - Fri 9.30am - 4pm\nSat 9.30am - 1pm\nSun closed\n",
    "lat": -37.874688,
    "lng": 145.126545},
    {
    "id": 233,
    "name": "Vinnies Pinewood",
    "address": "1/33-39 Centreway, Pinewood VIC 3149",
    "opentime": "Mon 10:00 AM - 4:45PM\nTue - Thu 10:00 AM - 4:45 PM\nFri 10:00 AM - 4:45PM\nSat 10:00 AM - 12:45PM\nSun Closed\n",
    "lat": -37.891428999999995,
    "lng": 145.143072},
    {
    "id": 234,
    "name": "Brotherhood Mount Waverley",
    "address": "11 Hamilton Walk, Mount Waverley",
    "opentime": "Mon - Fri 10am - 4pm\nSat 10 am to 12 pm \n",
    "lat": -37.87579279999999,
    "lng": 145.1275339},
    {
    "id": 235,
    "name": "Mount Waverley Salvos",
    "address": "Shop 3, 9 - 11 Hamilton Place, Mount Waverley VIC 3149",
    "opentime": "Mon - Fri 9.30-5.30\nSat 9.00-5.00\n",
    "lat": -37.87579279999999,
    "lng": 145.1275339},
    {
    "id": 236,
    "name": "Glen Waverley Salvos",
    "address": "251 Springvale Road, Glen Waverley VIC 3150",
    "opentime": "Mon - Fri 9.00-5.30\nSat 9.00-5.00\n",
    "lat": -37.878878,
    "lng": 145.165736},
    {
    "id": 237,
    "name": "MS Community Shop",
    "address": "96 Kingsway, Glen Waverley, 3150",
    "opentime": "Mon - Fri 9:30am - 5:00pm\nSat 10:00am - 1:00pm\n",
    "lat": -37.8814395,
    "lng": 145.1638116},
    {
    "id": 238,
    "name": "Mulgrave Salvos",
    "address": "204 Brandon Park Drive, Wheelers Hill VIC 3170",
    "opentime": "Mon - Fri 9.00-5.30\nSat 9.00-5.00\n",
    "lat": -37.9164916,
    "lng": 145.1770218},
    {
    "id": 239,
    "name": "RSPCA",
    "address": "Shops 9 & 10, 2-8 Burwood Hwy,Burwood East",
    "opentime": "Unknown\n",
    "lat": -37.8526487,
    "lng": 145.1326833},
    {
    "id": 240,
    "name": "Villa Opportunity Shop",
    "address": "Shop 9, Wantirna Mall, 348 Mountain Hwy, Wantirna",
    "opentime": "Mon - Sat 9am-4pm\n",
    "lat": -37.847705700000006,
    "lng": 145.2318584},
    {
    "id": 241,
    "name": "Hunter Gatherer",
    "address": "Knox City Shopping Centre, Cnr Burwood Hwy & Stud Road, Wantirna South",
    "opentime": "Mon - Wed 9am - 5:30pm\nThu - Fri 9am - 7pm\nSat 9am - 5pm\nSun 10am - 5pm\n",
    "lat": -37.868888899999995,
    "lng": 145.2411111},
    {
    "id": 242,
    "name": "Bayswater Salvos",
    "address": "716 Mountain Hwy Bayswater VIC 3153",
    "opentime": "Mon - Sat 9:00AM-5:00PM\nSun CLOSED\n",
    "lat": -37.841446000000005,
    "lng": 145.26550600000002},
    {
    "id": 243,
    "name": "Vinnies Bayswater",
    "address": "700 Mountain Highway, Bayswater VIC 3153",
    "opentime": "Mon - Sat 9:00 AM - 5:00 PM\nSun 10:00 AM-4:00PM\n",
    "lat": -37.842136700000005,
    "lng": 145.2649862},
    {
    "id": 244,
    "name": "Villa Opportunity Shop",
    "address": "Shop 6, 14f Station Street, Bayswater, 3153",
    "opentime": "Mon - Fri 10am-4pm\nSat 10am-1pm\n",
    "lat": -37.8417593,
    "lng": 145.26652969999998},
    {
    "id": 245,
    "name": "Knox Opportunity Shop - Bayswater",
    "address": "U3/29 Macauley Pl, Bayswater VIC",
    "opentime": "Mon - Fri 10am - 3pm\nSat 9am - 12pm\nSun CLOSED\n",
    "lat": -37.8423453,
    "lng": 145.2670353},
    {
    "id": 246,
    "name": "RSPCA Op Shop",
    "address": "17 Dorset Square, Boronia Vic 3151",
    "opentime": "Mon - Fri Monday-Friday 10am-4.30pm\nSat Saturday 10am-2.00pm\n",
    "lat": -37.86141569999999,
    "lng": 145.2862055},
    {
    "id": 247,
    "name": "boronia thrift shop",
    "address": "2 liverpool road. boronia victoria 3155",
    "opentime": "Tue - Wed 10.00am - 4.30\nThu - Fri 10.00 am - 4.30\nSat 10.00 am - 2.00\n",
    "lat": -37.848822399999996,
    "lng": 145.3092917},
    {
    "id": 248,
    "name": "Boronia Salvos",
    "address": "274 Dorset Road, Boronia VIC 3155",
    "opentime": "Mon - Fri 9.00-5.30\nSat 9.00-5.00\n",
    "lat": -37.8590935,
    "lng": 145.2861552},
    {
    "id": 249,
    "name": "Community Op-Shop",
    "address": "18 Alpine Street, Ferntree Gully",
    "opentime": "Mon - Fri 9-5\nSat 9-12\n",
    "lat": -37.8830592,
    "lng": 145.29673490000002},
    {
    "id": 250,
    "name": "Ferntree Gully Community store",
    "address": "1174 Burwood Hwy, Ferntree Gully",
    "opentime": "Mon - Fri 10am-4pm\nSat 10-am-1pm\nSun closed\n",
    "lat": -37.8937996,
    "lng": 145.3067894},
    {
    "id": 251,
    "name": "Hills Op Shop",
    "address": "18 Alpine Street Ferntree Gully",
    "opentime": "Mon - Fri 9:30-4:30\nSat 9:30-1:00\n",
    "lat": -37.8830592,
    "lng": 145.29673490000002},
    {
    "id": 252,
    "name": "Villa Opportunity Shop",
    "address": "Mountain Gate Shopping Centre, Shop 16, 1880 Ferntree Gully Road, Ferntree Gully",
    "opentime": "Mon - Fri 10am-4.00pm\nSat 10.00am-1.00pm\n",
    "lat": -37.8835655,
    "lng": 145.2765436},
    {
    "id": 253,
    "name": "Angliss Hospital FTG Auxiliaries",
    "address": "Shop 4, 101 Station St, Ferntree Gully, VIC",
    "opentime": "Unknown\n",
    "lat": -37.882735,
    "lng": 145.2947446},
    {
    "id": 254,
    "name": "Vinnies Ferntree Gully",
    "address": "32 Forest Road, Ferntree Gully VIC 3156",
    "opentime": "Mon - Sat 9:00 AM - 5:00 PM\nSun Closed\n",
    "lat": -37.883655600000004,
    "lng": 145.29709240000003},
    {
    "id": 255,
    "name": "Ferntree Gully Salvos",
    "address": "1841 Ferntree Gully Road, Mountain Gate VIC 3156",
    "opentime": "Mon - Fri 9.00-5.30\nSat 9.00-5.00\n",
    "lat": -37.8833608,
    "lng": 145.27106730000003},
    {
    "id": 256,
    "name": "Tamminya House op shop",
    "address": "7 Rose Street, upper Ferntree Gully",
    "opentime": "Mon - Tue 9-3:30\nWed Closed\nThu - Fri 9-3:30\nSat 9-2\nSun Closed\n",
    "lat": -37.894604,
    "lng": 145.310442},
    {
    "id": 257,
    "name": "Rose Street Op shop",
    "address": "7 Rose Street, Ferntree Gully, Victoria 3156",
    "opentime": "Mon - Fri 9-4\nSat 9-2\nSun Not open\n",
    "lat": -37.894604,
    "lng": 145.310442},
    {
    "id": 258,
    "name": "Treasure Shop",
    "address": "2 Morris Rd Upwey 3158",
    "opentime": "Sat 9am - 1pm\n",
    "lat": -37.9034504,
    "lng": 145.32940559999997},
    {
    "id": 259,
    "name": "Belgrave Op Shop - Belgrave",
    "address": "1672 Burwood Highway, Belgrave VIC",
    "opentime": "Unknown\n",
    "lat": -37.90944520000001,
    "lng": 145.3543832},
    {
    "id": 260,
    "name": "St Martin's Community Shop - Belgrave",
    "address": "78 Colby Drive, Belgrave VIC",
    "opentime": "Mon - Thu 9am - 3.45pm\nFri - Sat 9am - 12:30pm\n",
    "lat": -37.9261974,
    "lng": 145.35414550000002},
    {
    "id": 261,
    "name": "Tecoma Op Shop - Tecoma",
    "address": "1569 Burwood Hwy, Tecoma VIC",
    "opentime": "Mon - Fri 9am - 4pm\nSat 9am - 1pm\nSun closed\n",
    "lat": -37.9068914,
    "lng": 145.346215},
    {
    "id": 262,
    "name": "PWP op shop",
    "address": "2/1535 Burwood Hwy Tecoma ",
    "opentime": "Mon - Fri 9.30-4.30\nSat 10-4.30\nSun 11-4.30\n",
    "lat": -37.906416,
    "lng": 145.343828},
    {
    "id": 263,
    "name": "Preloved",
    "address": "1539 burwood hwy",
    "opentime": "Mon 10-5\nTue - Thu 9-5\nFri - Sat 10-5\nSun 11-4\n",
    "lat": -37.9065089,
    "lng": 145.34427340000002},
    {
    "id": 264,
    "name": "Salvos ",
    "address": "1535 Burwood Hwy Tecoma",
    "opentime": "Mon - Fri 9am - 5pm\nSat 9am-5pm\nSun closed\n",
    "lat": -37.906416,
    "lng": 145.343828},
    {
    "id": 265,
    "name": "Red Cross - Carnegie",
    "address": "22 Koornang Rd, Carnegie VIC",
    "opentime": "Mon - Sat 9:30-4:30\n",
    "lat": -37.884744,
    "lng": 145.058089},
    {
    "id": 266,
    "name": "Brotherhood Glen Huntly",
    "address": "1143 Glen huntly Road, Glen Huntly",
    "opentime": "Mon - Fri 9:30am - 4pm\nSat 10 am to 1 pm\n",
    "lat": -37.889216299999994,
    "lng": 145.0416936},
    {
    "id": 267,
    "name": "Oakleigh Centre Op Shop - Hughesdale",
    "address": "62 Poath Rd, Hughesdale VIC",
    "opentime": "Unknown\n",
    "lat": -37.89341829999999,
    "lng": 145.0772384},
    {
    "id": 268,
    "name": "Lions Opportunity Shop",
    "address": "461 Neerim Road, Murrumbeena",
    "opentime": "Mon - Fri 9.30am - 4.00pm\nSat 9.30am-12.30pm\nSun CLOSED\n",
    "lat": -37.889889600000004,
    "lng": 145.06724430000003},
    {
    "id": 269,
    "name": "Op shop - Bentleigh",
    "address": "701 Centre Rd, Bentleigh VIC",
    "opentime": "Unknown\n",
    "lat": -37.920463899999994,
    "lng": 145.0550523},
    {
    "id": 270,
    "name": "AAPS - East Bentleigh",
    "address": "693 Centre Road, East Bentleigh 3165",
    "opentime": "Unknown\n",
    "lat": -37.920432,
    "lng": 145.05482759999998},
    {
    "id": 271,
    "name": "Vinnies Oakleigh",
    "address": "20 Crewe Road, Hughesdale VIC 3166",
    "opentime": "Mon - Sat 9:00 AM - 5:00 PM\nSun  9:00 AM - 4:00 PM\n",
    "lat": -37.896229299999995,
    "lng": 145.087029},
    {
    "id": 272,
    "name": "Oakleigh Centre Op Shop - Huntingdale",
    "address": "290b Huntingdale Rd, Huntingdale VIC",
    "opentime": "Mon - Fri 9:30am - 4pm\nSat 10am - 3pm\n",
    "lat": -37.909786,
    "lng": 145.104029},
    {
    "id": 273,
    "name": "Temcare - Oakleigh",
    "address": "5A Station Street, Oakleigh VIC",
    "opentime": "Unknown\n",
    "lat": -37.898913,
    "lng": 145.088514},
    {
    "id": 274,
    "name": "Clayton Salvos",
    "address": "286A Clayton Road, Clayton VIC 3168",
    "opentime": "Mon - Fri 9.30-5.30\nSat 10.00-5.00\nSun Closed\n",
    "lat": -37.925287,
    "lng": 145.1199312},
    {
    "id": 275,
    "name": "Vinnies Clayton",
    "address": "2/370 Clayton Road, Clayton VIC 3168",
    "opentime": "Mon - Wed 9:00 AM - 4:30 PM\nThu - Fri 9:00 AM - 5:00 PM\nSat 10:00AM - 1:00PM\n",
    "lat": -37.92891229999999,
    "lng": 145.11916230000003},
    {
    "id": 276,
    "name": "Springvale Salvos",
    "address": "Shop 3/819-823 Princes Highway, Springvale VIC 3171",
    "opentime": "Mon - Fri 9.30-5.30\nSat 9.00-5.00\n",
    "lat": -37.9344011,
    "lng": 145.1573877},
    {
    "id": 277,
    "name": "Vinnies Springvale",
    "address": "119-123 Springvale Road , Springvale VIC 3171",
    "opentime": "Mon - Wed 9:00 AM - 5:00 PM\nThu - Fri 9:00 AM - 7:00 PM\nSat 9:00 AM - 5:00PM\n",
    "lat": -37.942334,
    "lng": 145.154336},
    {
    "id": 278,
    "name": "Keysborough Salvos",
    "address": "Unit 3A Fiveways Boulevard, Keysborough VIC 3173",
    "opentime": "Mon - Fri 9.00-5.00\nSat 9.00-5.00\n",
    "lat": -37.991168,
    "lng": 145.151787},
    {
    "id": 279,
    "name": "St Aidan's Opportunity Shop - Noble Park",
    "address": "1A Buckley St, Noble Park VIC",
    "opentime": "Mon - Fri 9:30am - 3:30pm\nSat 9:00am - 1:00pm\nSun Closed\n",
    "lat": -37.966373,
    "lng": 145.17461},
    {
    "id": 280,
    "name": "Ermha Op Shop",
    "address": "13 Buckley Street, Noble Park 3174.",
    "opentime": "Mon - Fri 9.30am - 4pm\nSat 9.30am - 12.30pm\n",
    "lat": -37.9668348,
    "lng": 145.17461310000002},
    {
    "id": 281,
    "name": "Ermha op shop ",
    "address": "13 Buckley St Noble Park",
    "opentime": "Mon - Fri  9.30 am - 4pm\nSat 9.30am - 12.30pm\n",
    "lat": -37.9668348,
    "lng": 145.17461310000002},
    {
    "id": 282,
    "name": "Noble Park Thrift Shop",
    "address": "14-16 Buckley st noble park",
    "opentime": "Mon Closed\nTue - Fri 10am - 2.30pm\nSat - Sun Closed\n",
    "lat": -37.966471000000006,
    "lng": 145.17424},
    {
    "id": 283,
    "name": "Noble Park Salvos",
    "address": "400 Princess Highway, Noble Park VIC 3174",
    "opentime": "Mon - Fri 9.30-5.30\nSat 9.00-5.00\n",
    "lat": -33.9916584,
    "lng": 151.1144113},
    {
    "id": 284,
    "name": "Jens Craft OpShop",
    "address": "8 Birch Ave, Dandenong North VIC 3175",
    "opentime": "Wed 9am - 2pm\nThu - Fri 9am - 4pm\nSat last Sat of month 9-12.\n",
    "lat": -37.963908,
    "lng": 145.204768},
    {
    "id": 285,
    "name": "Dandenong South Salvos",
    "address": "1/111-115 Lonsdale Street, Dandenong VIC 3175",
    "opentime": "Mon - Sat 9.00-5.00\n",
    "lat": -37.9946172,
    "lng": 145.2159944},
    {
    "id": 286,
    "name": "Dandenong and district benelovent society",
    "address": "305 Thomas Street, Dandenong",
    "opentime": "Mon - Thu 9am - 3pm\nFri 9am - 2pm\n",
    "lat": -37.985289,
    "lng": 145.21216},
    {
    "id": 287,
    "name": "Australian Red Cross ",
    "address": "248 Lonsdale Street, Dandenong 3175",
    "opentime": "Mon - Sat  9.00am-5.00pm\nSun Closed\n",
    "lat": -37.986336,
    "lng": 145.214628},
    {
    "id": 288,
    "name": "Uniting care Op shop",
    "address": "2 / 121 Lonsdale Street Dandenong",
    "opentime": "Tue - Sat 9am - 5pm \n",
    "lat": -37.994165,
    "lng": 145.21552},
    {
    "id": 289,
    "name": "Vinnies Dandenong",
    "address": "119-123 Lonsdale Street, Dandenong VIC 3175",
    "opentime": "Mon - Fri 9:00 AM - 5:00 PM\nSat 9:00 AM - 5:00 PM \nSun 10:00 AM - 4:00PM\n",
    "lat": -37.9940641,
    "lng": 145.21547769999998},
    {
    "id": 290,
    "name": "CoA Op Shop",
    "address": "18 Mason Street, Dandenong VIC 3175",
    "opentime": "Mon - Fri 9:00 am - 5:00 pm\nSat - Sun Closed\n",
    "lat": -37.9873938,
    "lng": 145.2113785},
    {
    "id": 291,
    "name": "Save The Children - Dandenong",
    "address": "119-123 Lonsdale St, Dandenong",
    "opentime": "Mon - Fri 9am - 5pm\nSat 10am - 5pm\n",
    "lat": -37.9940641,
    "lng": 145.21547769999998},
    {
    "id": 292,
    "name": "Avocare Community Shop",
    "address": "46 Menzies Ave, North Dandenong",
    "opentime": "Mon - Tue 9:30 am - 3:30 pm\nWed - Fri 9:30 am - 3:30pm\nSat 9:00 am - 3:00 pm\nSun Closed\n",
    "lat": -37.966295200000005,
    "lng": 145.20914969999998},
    {
    "id": 293,
    "name": "AAPS Shelter OP Shop Dandenong South",
    "address": "1132 Bangholme Rd, Dandenong South 3175",
    "opentime": "Mon Closed\nTue - Sat 10am-2.30pm\nSun Closed\n",
    "lat": -38.0371911,
    "lng": 145.1939596},
    {
    "id": 294,
    "name": "The Salvation Army Thrift Shop Doveton",
    "address": "1A Frawley Road Doveton, 3177",
    "opentime": "Mon - Fri 9.30am-4pm\nSat - Sun Closed\n",
    "lat": -37.994986299999994,
    "lng": 145.2443514},
    {
    "id": 295,
    "name": "Rowville Salvos",
    "address": "Showroom 3/5 Fulham Road, Rowville VIC 3178",
    "opentime": "Mon - Fri 9.00-5.30\nSat 9.00-5.00\n",
    "lat": -37.91736029999999,
    "lng": 145.23653769999999},
    {
    "id": 296,
    "name": "Uniting Op Shop - Scoresby",
    "address": "4 Darryl Street, Scoresby VIC",
    "opentime": "Mon-Fri 10:00-4:00\nSat 10:00-1:00\n",
    "lat": -37.898217700000004,
    "lng": 145.230124},
    {
    "id": 297,
    "name": "Storehouse Thrift",
    "address": "77 Chapel St Windsor",
    "opentime": "Mon - Fri 10:00am - 5:00pm\nSat 10:00am - 5:00pm \nSun 10:00am - 5:00pm\n",
    "lat": -37.8549102,
    "lng": 144.9924875},
    {
    "id": 298,
    "name": "Prahan Red Cross",
    "address": "188 Commercial Rd\tPrahran VIC 3181",
    "opentime": "Mon - Thu 9:30am - 5:30pm\nFri 9:30am - 6:00pm\nSat 9:30am - 5:30pm\nSun 12:00am - 5:00pm\n",
    "lat": -37.846821000000006,
    "lng": 144.992499},
    {
    "id": 299,
    "name": "Uniting Op Shop - Prahran",
    "address": "211 Chapel St, Prahran VIC",
    "opentime": "Mon - Sat 10.00 am - 4.30pm\nSun 12.00pm - 4.00pm\n",
    "lat": -37.85106270000001,
    "lng": 144.9932687},
    {
    "id": 300,
    "name": "Sacred Heart Mission Op Shop Chapel Street Prahran",
    "address": "262 Chapel Street, Prahran",
    "opentime": "Mon - Sat 10am-6pm\nSun 10.30am-5.30pm\n",
    "lat": -37.8495454,
    "lng": 144.9939208},
    {
    "id": 301,
    "name": "Save The Children Windsor ",
    "address": "59-61 Chapel Street, Windsor VIC 3181",
    "opentime": "Mon - Sat 10am-5pm\nSun CLOSED\n",
    "lat": -37.85530809999999,
    "lng": 144.9925019},
    {
    "id": 302,
    "name": "The Shop of Op",
    "address": "110 Chapel Street Windsor, Victoria",
    "opentime": "Mon - Sat 10:00 am - 6:00 pm\nSun 11:00 am - 5:00 pm\n",
    "lat": -37.854283,
    "lng": 144.99321909999998},
    {
    "id": 303,
    "name": "Windsor Salvos",
    "address": "111 - 115 Chapel Street, Windsor, Victoria",
    "opentime": "Mon - Fri 10am - 7pm\nSat 10am - 6pm\n",
    "lat": -37.8539107,
    "lng": 144.9926596},
    {
    "id": 304,
    "name": "Storehouse - Windsor",
    "address": "77 Chapel St, Windsor VIC",
    "opentime": "Mon - Sun 10AM-5PM\n",
    "lat": -37.8549102,
    "lng": 144.9924875},
    {
    "id": 305,
    "name": "Sacred Heart Mission,Prahran Op Shop",
    "address": "86/88 Chapel Street, Prahran",
    "opentime": "Mon - Sat 10am - 6pm\nSun 10:30am - 5:30pm\n",
    "lat": -37.854949,
    "lng": 144.992995},
    {
    "id": 306,
    "name": "mecwacare Windsor Op Shop",
    "address": "52 Chapel St, Windsor VIC",
    "opentime": "Mon - Fri 10-5\nSat 11-4\nSun 11:30-3\n",
    "lat": -37.8559245,
    "lng": 144.99278869999998},
    {
    "id": 307,
    "name": "St Kilda Salvos",
    "address": "116 Carlisle Street, St Kilda VIC 3182",
    "opentime": "Mon - Wed 9.00-5.30\nThu - Fri 9.00-7:00\nSat 9.00-5.00\n",
    "lat": -37.86783399999999,
    "lng": 144.98760900000002},
    {
    "id": 308,
    "name": "Sacred Heart Mission, St Kilda Op Shop",
    "address": "87a Grey Street, St Kilda",
    "opentime": "Mon - Sat 9.30am - 4.30pm\nSun 10am - 5pm\n",
    "lat": -37.8628529,
    "lng": 144.9802651},
    {
    "id": 309,
    "name": "Greeves St. Recycled",
    "address": "12-16 Belford Street, St Kilda, VIC",
    "opentime": "Mon - Sat 10:30 - 5:00\nSun 12pm - 4pm\n",
    "lat": -37.8677836,
    "lng": 144.98027140000002},
    {
    "id": 310,
    "name": "Sacred Heart Mission Op Shops Chapel Street Prahran",
    "address": "87a Grey St St Kilda",
    "opentime": "Mon - Sat 10am-6pm\nSun 10.30am-5.30pm\n",
    "lat": -37.8628529,
    "lng": 144.9802651},
    {
    "id": 311,
    "name": "Frocks and Slacks",
    "address": "Barkly St",
    "opentime": "Unknown\n",
    "lat": -37.869640600000004,
    "lng": 144.98074509999998},
    {
    "id": 312,
    "name": "Inkerman Street Opshop",
    "address": "415 Inkerman Street East St Kilda",
    "opentime": "Mon - Sun 10am to 5pm\n",
    "lat": -37.866601,
    "lng": 144.999818},
    {
    "id": 313,
    "name": "Sacred Heart Mission - East St Kilda",
    "address": "415 Inkerman Street, East St Kilda VIC",
    "opentime": "Mon - Thu 10am - 5pm\nFri 10am- 5pm\nSat - Sun 10am - 5pm\n",
    "lat": -37.866601,
    "lng": 144.999818},
    {
    "id": 314,
    "name": "Vinnies",
    "address": "482A Glen Huntly Rd Elsternwick vic",
    "opentime": "Mon - Sat 9-5\nSun 10-4\n",
    "lat": -37.885378,
    "lng": 145.00811000000002},
    {
    "id": 315,
    "name": "Posh Opp Shop - Glen Huntly",
    "address": "484 Glenhuntly Rd, Elsternwick",
    "opentime": "Mon - Fri 10am-4.30pm\nSat 10:00-3:00\nSun Closed\n",
    "lat": -37.885397999999995,
    "lng": 145.008258},
    {
    "id": 316,
    "name": "Pop Up Op Shop",
    "address": "411 Glen Huntley Road, Elsternwick ",
    "opentime": "Unknown\n",
    "lat": -37.884765,
    "lng": 145.00544299999999},
    {
    "id": 317,
    "name": "Sacred Heart Mission, Elsternwick Op Shop",
    "address": "486 Glenhuntly Road Elsternwick",
    "opentime": "Mon - Sun 10am - 5pm\n",
    "lat": -37.8854936,
    "lng": 145.00839130000003},
    {
    "id": 318,
    "name": "St John's Uniting Church Op Shop",
    "address": "302 Glen Huntly Rd, Elsternwick VIC",
    "opentime": "Mon - Sat 9:00-6:00\n",
    "lat": -37.884631799999994,
    "lng": 145.0021926},
    {
    "id": 319,
    "name": "Elsternwick Red Cross",
    "address": "402 Glenhuntly Rd, Elsternwick VIC 3185",
    "opentime": "Mon - Sat 9:00am - 5:00pm\nSun 11:00am - 3:00pm\n",
    "lat": -37.885032,
    "lng": 145.005243},
    {
    "id": 320,
    "name": "Elsternwick Salvos",
    "address": "366 Glenhuntly Road, Elsternwick VIC 3185",
    "opentime": "Mon - Fri 9.00-5.30\nSat 9.00-5.00\n",
    "lat": -37.8848756,
    "lng": 145.0039856},
    {
    "id": 321,
    "name": "Sacred Heart Mission - Elsternwick",
    "address": "1/486 Glenhuntly Road, Elsternwick",
    "opentime": "Mon - Sun 10am to 5pm\n",
    "lat": -37.8854936,
    "lng": 145.00839130000003},
    {
    "id": 322,
    "name": "St Stephen's Op Shop ",
    "address": "128 Martin Street Gardenvale",
    "opentime": "Mon 9.00am to 3.00pm\nTue 9.00am to 4.00pm\nWed 10.30am to 4.00pm\nThu - Fri 9.00am to 4.00pm\nSat 10.00am to 1.00pm\nSun Closed\n",
    "lat": -37.89757300000001,
    "lng": 145.0034197},
    {
    "id": 323,
    "name": "Biccy's Op Shop - Brighton",
    "address": "148 Church St, Brighton VIC",
    "opentime": "Unknown\n",
    "lat": -37.9163028,
    "lng": 144.9967591},
    {
    "id": 324,
    "name": "St Andrew's Opportunity Shop - Brighton",
    "address": "17 St Andrew's Street, Brighton VIC",
    "opentime": "Mon - Fri 10.00-4.00\nSat 10.00-1.00\n",
    "lat": -37.9117964,
    "lng": 144.9930685},
    {
    "id": 325,
    "name": "Hampton Salvos",
    "address": "562 Hampton St, Hampton VIC 3188",
    "opentime": "Mon - Fri 9.00-5.30\nSat 9.00-5.00\n",
    "lat": -37.932006200000004,
    "lng": 145.0037263},
    {
    "id": 326,
    "name": "Hampton Red Cross",
    "address": "436 Hampton St, Hampton VIC 3188",
    "opentime": "Mon - Fri 9:30am - 5:30pm\nSat 10:00am - 4:30pm\n",
    "lat": -37.937464,
    "lng": 145.002699},
    {
    "id": 327,
    "name": "Storehouse Op Shop- Hampton",
    "address": "519 Hampton Street, Hampton",
    "opentime": "Mon - Fri 10am-5:00pm\nSat 10am-4:00pm\nSun Closed\n",
    "lat": -37.931825700000005,
    "lng": 145.0031614},
    {
    "id": 328,
    "name": "Vinnies Hampton",
    "address": "501 Hampton Street, Hampton VIC 3188",
    "opentime": "Mon - Sat 9:00 AM - 5:00 PM\nSun 10:00 AM - 4:00 PM \n",
    "lat": -37.932435399999996,
    "lng": 145.0032229},
    {
    "id": 329,
    "name": "Family Life Hampton",
    "address": "452B Hampton Street Hampton ",
    "opentime": "Mon 9:30am-5:00pm\nTue 9:30am-5:00pm \nWed - Sat 9:30am-5:00pm\nSun CLOSED \n",
    "lat": -37.9368715,
    "lng": 145.00282980000003},
    {
    "id": 330,
    "name": "AAPS - Moorabbin",
    "address": "54 Station Street, Moorabbin 3189",
    "opentime": "Unknown\n",
    "lat": -37.933652,
    "lng": 145.03753999999998},
    {
    "id": 331,
    "name": "The Recycle 'n' Realx Club ",
    "address": "2 cochranes road Moorabbin 3189",
    "opentime": "Tue - Sat 10am-4pm\n",
    "lat": -37.9422929,
    "lng": 145.0607987},
    {
    "id": 332,
    "name": "Savers Moorabbin ",
    "address": "430 Warrigal Road Suite 4&amp;5 Heatherton, VIC 3202",
    "opentime": "Mon - Wed 9:00 am - 7:00 pm \nThu - Fri 9:00 am - 9:00 pm \nSat - Sun 9:00 am - 6:00 pm \n",
    "lat": -37.9487231,
    "lng": 145.078757},
    {
    "id": 333,
    "name": "Family Life Highett",
    "address": "12-14 Railway Parade, Highett",
    "opentime": "Mon - Fri 9.30am-5pm\nSat 9.30am- 2pm\nSun Closed\n",
    "lat": -37.9483318,
    "lng": 145.0423392},
    {
    "id": 334,
    "name": "Oz Child - Highett",
    "address": "356 Highett Rd, Highett VIC",
    "opentime": "Mon - Fri 9am - 3:30pm\nSat 8:30am - 12:30pm\n",
    "lat": -37.9492357,
    "lng": 145.044671},
    {
    "id": 335,
    "name": "All Souls' Opportunity Shop - Sandringham",
    "address": "46 Bay Rd, Sandringham VIC",
    "opentime": "Mon - Fri 9:30-4:30\nSat 9.30-1pm\n",
    "lat": -37.9521545,
    "lng": 145.0053997},
    {
    "id": 336,
    "name": "Super Fund Care",
    "address": "1/5-7 Radcliff Ave",
    "opentime": "Unknown\n",
    "lat": -37.959827600000004,
    "lng": 145.0586961},
    {
    "id": 337,
    "name": "Family Life Cheltenham",
    "address": "1297 Nepean Hwy, Cheltenham VIC 3192",
    "opentime": "Mon - Fri 10am - 5pm\nSat 10am - 2pm\nSun Closed\n",
    "lat": -37.965267100000005,
    "lng": 145.0581007},
    {
    "id": 338,
    "name": "Sacred Heart Mission Cheltenham ",
    "address": "261 Charman Road, Cheltenham",
    "opentime": "Mon - Sun 10am - 5pm\n",
    "lat": -37.966533,
    "lng": 145.055276},
    {
    "id": 339,
    "name": "AAPS - Cheltenham",
    "address": "22 Station Road, Cheltenham 3192",
    "opentime": "Mon - Fri 9.30am-4pm\nSat 9.30am-12pm\n",
    "lat": -37.9672472,
    "lng": 145.05698030000002},
    {
    "id": 340,
    "name": "Beatrice Yu",
    "address": "43 Kembla Street, Cheltenham, Victoria",
    "opentime": "Mon - Fri 9am -5pm\n",
    "lat": -37.9746309,
    "lng": 145.085467},
    {
    "id": 341,
    "name": "Cheltenham Opportunity Shop - Cheltenham",
    "address": "35 Station Rd, Cheltenham VIC",
    "opentime": "Mon - Fri 9.30am-4pm\nSat 9.30am-12pm\n",
    "lat": -37.96698629999999,
    "lng": 145.0570403},
    {
    "id": 342,
    "name": "Cheltenham Salvos",
    "address": "1216 Nepean Highway, Cheltenham VIC 3192",
    "opentime": "Mon - Fri 9.00-5.30\nSat 9.00-5.00\n",
    "lat": -37.963495,
    "lng": 145.055732},
    {
    "id": 343,
    "name": "Family Life Black Rock",
    "address": "601 Balcombe Road Black Rock",
    "opentime": "Mon - Fri 9:30am-5:00pm\nSat 9:30am- 2:00pm\nSun CLOSED \n",
    "lat": -37.975736299999994,
    "lng": 145.0170013},
    {
    "id": 344,
    "name": "Mentone Salvos",
    "address": "46 - 48 Florence Street, Mentone VIC 3194",
    "opentime": "Mon - Fri 9.00-5.30\nSat 9.00-5.00\n",
    "lat": -37.98283840000001,
    "lng": 145.06409109999998},
    {
    "id": 345,
    "name": "Salvos Mentone",
    "address": "46/48 Florence St, Mentone VIC 3194",
    "opentime": "Mon - Fri 9.00-5.30\nSat 9.00-5.00\n",
    "lat": -37.9829309,
    "lng": 145.06431640000002},
    {
    "id": 346,
    "name": "Southern Opportunity Shop - Mentone",
    "address": "51 Florence St, Mentone VIC",
    "opentime": "Mon - Fri 9:30-4:30\nSat 9:30-12:30\n",
    "lat": -37.982548,
    "lng": 145.064064},
    {
    "id": 347,
    "name": "Vinnies Mentone",
    "address": "34 Nepean Highway, Mentone VIC 3194",
    "opentime": "Mon - Fri 9:00 AM - 5:00 PM\nSat - Sun 10:00 AM - 4:00 PM\n",
    "lat": -37.975882500000004,
    "lng": 145.06531669999998},
    {
    "id": 348,
    "name": "Moridallic Salvos",
    "address": "489 Main St  Mordialloc VIC 3195",
    "opentime": "Mon - Fri 9.00-5.30\nSat 9.00-5.00\n",
    "lat": -38.006339000000004,
    "lng": 145.086649},
    {
    "id": 349,
    "name": "Lions Opportunity Shop - Mordialloc",
    "address": "497 Main St, Mordialloc VIC",
    "opentime": "Mon 10an to 3pm\nTue 10am to 3pm\nWed - Thu 10am to 4pm\nFri 10am to 3pm\nSat 9.30am to 4.30pm\nSun Closed\n",
    "lat": -38.006549,
    "lng": 145.086814},
    {
    "id": 350,
    "name": "St Marks Anglican Opportunity Shop",
    "address": "cnr Nepean Hwy & ODonoghue St",
    "opentime": "Thurs-Fri:9am to 4pm\n Sat:9am to 12pm\n",
    "lat": -37.8977955,
    "lng": 145.00518019999998},
    {
    "id": 351,
    "name": "Epilepsy Op Shop Parkdale",
    "address": "258 Como Pde West, Parkdale VIC",
    "opentime": "Mon - Sat 10am to 4pm\n",
    "lat": -37.9934848,
    "lng": 145.0760537},
    {
    "id": 352,
    "name": "Yooralla - Chelsea",
    "address": "Shop 2/402 Chealsa, Nepean Highway,",
    "opentime": "Unknown\n",
    "lat": -38.164344,
    "lng": 145.1017975},
    {
    "id": 353,
    "name": "Longbeach Anglican Parish",
    "address": "405 Nepean Hwy, Chelsea VIC",
    "opentime": "Mon - Fri 9:00-4:00\nSat 9:00-1:00\n",
    "lat": -38.052289200000004,
    "lng": 145.1155241},
    {
    "id": 354,
    "name": "Family Life Opportunity Shop",
    "address": "435 Nepean Highway, Chelsea",
    "opentime": "Mon - Fri 10-4\nSat 9.30-3\n",
    "lat": -38.054025700000004,
    "lng": 145.1165667},
    {
    "id": 355,
    "name": "RSPCA Chelsea Op Shop ",
    "address": "424 Nepean Highway, Chelsea VIC",
    "opentime": "Mon - Fri 9.30 am - 5.00 pm\nSat 9.30 am - 3.00 pm\nSun Closed\n",
    "lat": -38.0535294,
    "lng": 145.1160952},
    {
    "id": 356,
    "name": "Vinnies Chelsea Heights",
    "address": "Unit 1-2/6 Hartwood Court, Chelsea Heights VIC 3196",
    "opentime": "Mon - Sat 9am-5pm\nSun 10am - 4pm\n",
    "lat": -38.0357361,
    "lng": 145.1362426},
    {
    "id": 357,
    "name": "Chelsea Heights Salvos",
    "address": "2/1 Hartwood Court, Chelsea Heights VIC 3196",
    "opentime": "Mon - Sat 9.00-5.00\nSun 11.00-4.00 \n",
    "lat": -38.03542120000001,
    "lng": 145.1357296},
    {
    "id": 358,
    "name": "Vinnies Seaford",
    "address": "152 Austin Road, Seaford VIC 3198",
    "opentime": "Mon - Tue 8:30 AM - 4:00 PM\nWed 8:00 AM - 4:00 PM\nThu 9:00 AM - 4:00\nFri 8:30 AM - 4:00PM\nSat 9:00 AM - 12:00 PM\n",
    "lat": -38.107136,
    "lng": 145.14803799999999},
    {
    "id": 359,
    "name": "Avocare Seaford Op Shop and Secondhand Bookshop",
    "address": "Factory 1, 95 Hartnett drive Seaford ",
    "opentime": "Mon - Fri 9am - 4pm\n",
    "lat": -38.118927899999996,
    "lng": 145.1409094},
    {
    "id": 360,
    "name": "Brotherhood Seaford",
    "address": "Shop 1, 1-3 Station Street, Seaford",
    "opentime": "Mon - Thu 9:30am - 4pm\nFri 9:30am - 3:45pm\nSat 9.30am - 12pm\n",
    "lat": -38.1033261,
    "lng": 145.1262413},
    {
    "id": 361,
    "name": "Save the Children - Frankston",
    "address": "28 Playne Street, Frankston VIC",
    "opentime": "Mon - Fri 9.30am - 4.30pm\nSat 9.30am - 3.30pm\n",
    "lat": -38.1449372,
    "lng": 145.12173069999997},
    {
    "id": 362,
    "name": "Op Shop on the Hill @ St Paul's",
    "address": "1 Bay Street, Frankston VIC",
    "opentime": "Mon Closed\nTue 10.00am-1.00pm\nWed - Thu Closed\nFri 9.30am-4.00pm\nSat 10.00am - 12 noon (First Saturday only)\nSun Closed\n",
    "lat": -38.147707399999994,
    "lng": 145.1182475},
    {
    "id": 363,
    "name": "Heavenly Ware Op Shop",
    "address": "130 Cranbourne Rd, Frankston VIC",
    "opentime": "Tue - Fri 10:00am - 1:00pm\nSat - Sun Closed\n",
    "lat": -38.1471373,
    "lng": 145.1415346},
    {
    "id": 364,
    "name": "Frankston Life Community Store",
    "address": "9 Station Street Frankston ",
    "opentime": "Mon - Fri 9 am to 5pm\nSat 9am to 4pm\nSun Not Open\n",
    "lat": -38.142984999999996,
    "lng": 145.1243709},
    {
    "id": 365,
    "name": "Frankston Salvos",
    "address": "17 Thompson Street, Frankston VIC 3199",
    "opentime": "Mon - Fri 9.00-5.30\nSat 9.00-5.00\n",
    "lat": -38.14351,
    "lng": 145.122152},
    {
    "id": 366,
    "name": "Vinnies Frankston",
    "address": "80 Young St, Frankston VIC 3199",
    "opentime": "Mon - Sat 9:00 AM - 5 PM\n",
    "lat": -38.143603000000006,
    "lng": 145.125151},
    {
    "id": 367,
    "name": "Red Cross - Frankston",
    "address": "13b Thompson St, Frankston VIC",
    "opentime": "Mon-Fri 9:30-4:30\nSat 9:30-1:00\n",
    "lat": -38.143664,
    "lng": 145.12196459999998},
    {
    "id": 368,
    "name": "RSPCA",
    "address": "4 Peninsula Walk, Cnr Playne and Young St,Frankston",
    "opentime": "Mon - Fri 9.30am to 4pm\nSat 9.30 to 12.30pm\n",
    "lat": -38.1450855,
    "lng": 145.1237299},
    {
    "id": 369,
    "name": "IMHS Charity Op Shop",
    "address": "51 Kareela Road 3199 Frankston, Victoria",
    "opentime": "Mon - Sun 9.30am-4pm\n",
    "lat": -38.144865,
    "lng": 145.15015400000001},
    {
    "id": 370,
    "name": "St John's Bargain Op shop",
    "address": "Cnr Frankston -Dandenong Rd and Monterey Blvd Frankston North",
    "opentime": "Mon 9.00 am - 2.00 pm\nThu 9.00 am - 2.00 pm\nSat 10.00-1.00pm, 2nd & 4th in a Calendar Month\n",
    "lat": -38.118333299999996,
    "lng": 145.1490445},
    {
    "id": 371,
    "name": "Recycle Super store",
    "address": "47 Excelsior Drive VIC",
    "opentime": "Mon - Fri 9am - 5pm\nSat 9am -2pm\n",
    "lat": -38.117645,
    "lng": 145.15958999999998},
    {
    "id": 372,
    "name": "Savers Currum Downs",
    "address": "576-578 Frankston-Dandenong Road Carrum Downs, VIC 3201",
    "opentime": "Mon - Wed 9:00 am - 7:00 pm\nThu - Fri 9:00 am - 9:00 pm\nSat - Sun 9:00 am - 6:00 pm \n",
    "lat": -38.0987495,
    "lng": 145.1730744},
    {
    "id": 373,
    "name": "Vinnies Carrum Downs",
    "address": "562 Frankston/Dandenong Road, Carrum Downs VIC 3201",
    "opentime": "Mon - Sat 9:00 AM - 5:00 PM\nSun 10:00 AM - 4:00PM\n",
    "lat": -38.1010813,
    "lng": 145.1703111},
    {
    "id": 374,
    "name": "Carrum Downs Salvos",
    "address": "5/2 Amayla Crescent, Carrum Downs VIC 3201",
    "opentime": "Mon - Fri 9.00-5.30\nSat 9.00-5.00\n",
    "lat": -38.106390000000005,
    "lng": 145.165092},
    {
    "id": 375,
    "name": "Salvation Army Church Thrift Shop ",
    "address": "1265 Frankston Dandenong Rd Carrum Downs ",
    "opentime": "Mon Closed\nTue - Fri 9.30-2.30\n",
    "lat": -38.1006084,
    "lng": 145.1726831},
    {
    "id": 376,
    "name": "The Holland Foundation Op Shop",
    "address": "502 Centre Road, Bentleigh VIC 3204",
    "opentime": "Mon - Fri 9:00am to 5:30pm\nSat - Sun 10am to 4:00pm\n",
    "lat": -37.9189344,
    "lng": 145.0408431},
    {
    "id": 377,
    "name": "Bentleigh East Salvos",
    "address": "475 Centre Road, Bentleigh  VIC 3204",
    "opentime": "Mon - Fri 9.00-5.30\nSat 9.00-5.00\n",
    "lat": -37.918696999999995,
    "lng": 145.042146},
    {
    "id": 378,
    "name": "Red Cross - Bentleigh",
    "address": "455 Centre Rd, Bentleigh VIC",
    "opentime": "Mon-Fri 9:30-5:00\nSat 9:30-3:00\n",
    "lat": -37.9185023,
    "lng": 145.0408323},
    {
    "id": 379,
    "name": "Vinnies Bentleigh",
    "address": "394 Centre Road, Bentleigh VIC 3204",
    "opentime": "Mon - Sun 9:00 AM - 5:00 PM\n",
    "lat": -37.9183273,
    "lng": 145.036376},
    {
    "id": 380,
    "name": "Golden Opportunity Shop - Bentleigh (Possible Closed)",
    "address": "512a Centre Rd, Bentleigh VIC",
    "opentime": "Mon - Fri 9:30-4:30\nSat 9:30-1:00\n",
    "lat": -37.91894129999999,
    "lng": 145.0411726},
    {
    "id": 381,
    "name": "Brotherhood Bentleigh",
    "address": "518 Centre Road, Bentleigh",
    "opentime": "Mon - Fri 9:30am - 5pm\nSat 10am - 4pm\nSun 10am - 3pm\n",
    "lat": -37.91905819999999,
    "lng": 145.0413979},
    {
    "id": 382,
    "name": "Sacred Heart Mission",
    "address": "271 Centre Road Bentleigh",
    "opentime": "Mon - Sun 10am - 5pm\n",
    "lat": -37.917518,
    "lng": 145.032829},
    {
    "id": 383,
    "name": "Vision Australia Op Shop",
    "address": "839 Nepean Highway, Bentleigh, VIC, 3204",
    "opentime": "Mon - Fri 9 am - 4:30 pm\nSat 9 am - 12 pm\n",
    "lat": -37.925201,
    "lng": 145.027389},
    {
    "id": 384,
    "name": "Epilepsy Op Shop Bentleigh",
    "address": "351  Centre Road   Bentleigh  Vic  3204",
    "opentime": "Mon 9.30am   -    4.30pm\nTue 9.30am   -  4.30pm\nWed 9.30am  -   4.30pm\nThu 9.30am   -   4.30pm\nFri 9.30am   -  4.30pm\nSat 11.00am   -   3.00pm\n",
    "lat": -37.917964000000005,
    "lng": 145.036},
    {
    "id": 385,
    "name": "Sacred Heart Mission, Bentleigh Op Shop",
    "address": " 271 Centre Road (cnr Wheatley Rd) Bentleigh",
    "opentime": "Mon - Sun 10am - 5pm\n",
    "lat": -37.9175777,
    "lng": 145.0325091},
    {
    "id": 386,
    "name": "Vinnies Ormond",
    "address": "491 North Road, Ormond VIC 3204",
    "opentime": "Mon - Fri 10:00 AM - 5:00 PM\nSat 10:00 AM - 1:00 PM\n",
    "lat": -37.903741,
    "lng": 145.040154},
    {
    "id": 387,
    "name": "Sacred Heart Mission, South Melbourne Op Shop",
    "address": "365 Clarendon Street South Melbourne",
    "opentime": "Mon - Sun 10am - 5pm\n",
    "lat": -37.835892,
    "lng": 144.962184},
    {
    "id": 388,
    "name": "Sacred Heart Mission - South Melbourne",
    "address": "365 Clarendon Street, South Melbourne",
    "opentime": "Mon - Sun 10am - 5pm\n",
    "lat": -37.835892,
    "lng": 144.962184},
    {
    "id": 389,
    "name": "South Melbourne Community Chest Opportunity Shop - South Melbourne",
    "address": "202 Bank St, South Melbourne VIC",
    "opentime": "Mon - Fri 10-5\nSat 10-2\n",
    "lat": -37.83406919999999,
    "lng": 144.96046230000002},
    {
    "id": 390,
    "name": "South Melbourne Salvos",
    "address": "183 Clarendon Street, South Melbourne VIC 3205",
    "opentime": "Mon - Fri 9.30-5.30\nSat 9.00-5.00\n",
    "lat": -37.8299651,
    "lng": 144.9594129},
    {
    "id": 391,
    "name": "Uniting Goodwill Op Shop - Albert Park",
    "address": "115 Bridport Street, Albert Park VIC",
    "opentime": "Mon Closed \nTue - Fri 10am- 4.30pm\nSat 10am - 2.00pm\nSun Closed\n",
    "lat": -37.840763,
    "lng": 144.956221},
    {
    "id": 392,
    "name": "Epilepsy Op Shop  Port Melbourne",
    "address": "2/322  Bay Street   Port Melbourne  Vic  3207",
    "opentime": "Mon 9.30am  -  4.30pm\nTue 9.30am  - 4.30pm\nWed - Fri 9.30am  -  4.30pm\nSat 9.30am  -  4.00pm\n",
    "lat": -37.836748799999995,
    "lng": 144.94438540000002},
    {
    "id": 393,
    "name": "Vinnies Port Melbourne",
    "address": "326 Bay Street, Port Melbourne VIC 3207",
    "opentime": "Mon - Fri 9:00 AM - 5:00 PM\nSat 9:30 AM - 1:00 PM\n",
    "lat": -37.836673,
    "lng": 144.944402},
    {
    "id": 394,
    "name": "South Port UnitingCare Op Shop- Port Melb",
    "address": "323 Bay St Port Melbourne",
    "opentime": "Tue - Fri 10am-4.00pm\n",
    "lat": -37.836099299999994,
    "lng": 144.94408430000001},
    {
    "id": 395,
    "name": "Anglican Op shop",
    "address": "35-39 Curletts Rd. Lara",
    "opentime": "Mon closed\nTue - Fri 10-4\nSat 10-1\n",
    "lat": -38.0178326,
    "lng": 144.404235},
    {
    "id": 396,
    "name": "Salvos Lara",
    "address": "28 Hicks Street, Lara VIC 3212",
    "opentime": "Mon - Fri 9.30-5.30\nSat 9.00-2.00\n",
    "lat": -38.0223317,
    "lng": 144.4160833},
    {
    "id": 397,
    "name": "Treasures Op Shop",
    "address": "15 Detroit Cresent, Norlane, 3214",
    "opentime": "Mon - Tue 10am-3.00pm\nWed - Fri 10am-4pm\n",
    "lat": -38.0777835,
    "lng": 144.3618854},
    {
    "id": 398,
    "name": "The Bridge",
    "address": "108 Bacchus Marsh Rd Corio VIC 3214",
    "opentime": "Tue 10am-3.45pm\nWed - Fri 10am - 3.45pm\n",
    "lat": -38.0750904,
    "lng": 144.359078},
    {
    "id": 399,
    "name": "Vinnies Norlane",
    "address": "3 Labuan Square, Norlane VIC 3214",
    "opentime": "Mon - Fri 10:00 AM - 4:00 PM\nSat - Sun Closed\n",
    "lat": -38.0960184,
    "lng": 144.3604494},
    {
    "id": 400,
    "name": "church of christ op shop",
    "address": "Eagle Parade Norlane",
    "opentime": "Thu - Fri 10.00-3.00\n",
    "lat": -38.0865468,
    "lng": 144.3504613},
    {
    "id": 401,
    "name": "Golden Opportunity Community Shop",
    "address": "55 Alkira Avenue, Norlane",
    "opentime": "Mon 9am to 3pm\nTue 9am to 4pm\nWed - Fri 9am to 3pm\nSat CLOSED\nSun Closed\n",
    "lat": -38.093660899999996,
    "lng": 144.350173},
    {
    "id": 402,
    "name": "Geelong North Salvos",
    "address": "235 Thompsons Road , Geelong North VIC 3215",
    "opentime": "Mon - Fri 9.00-5.30\nSat 9.00-5.00\n",
    "lat": -38.108574100000006,
    "lng": 144.34338459999998},
    {
    "id": 403,
    "name": "Vines Options",
    "address": "81 Vines Rd, HAMLYN HEIGHTS, 3215",
    "opentime": "Mon - Thu 10:00AM-4:00PM\nFri 10:00AM-1:00PM\n",
    "lat": -38.121326399999994,
    "lng": 144.3283751},
    {
    "id": 404,
    "name": "GAWS Op Shop",
    "address": "63 Vines Road, Hamlyn Heights",
    "opentime": "Mon - Sat 10am - 4pm\nSun Closed\n",
    "lat": -38.1218274,
    "lng": 144.32833459999998},
    {
    "id": 405,
    "name": "Vinnies Hamlyn Heights",
    "address": "71-75 Vines Road, Hamlyn Heights VIC 3215",
    "opentime": "Mon - Fri 9:00 AM - 5:00 PM\nSat 9:00 AM - 1:00 PM\nSun CLOSED\n",
    "lat": -38.12152879999999,
    "lng": 144.3283351},
    {
    "id": 406,
    "name": "Edols Street Op Shop",
    "address": "24 Edols Street North Geelong",
    "opentime": "Mon Not open\nTue 9.30 - 4.30\nWed - Fri 9.30-4.30\nSat 11-4.30\nSun Not open\n",
    "lat": -38.1100323,
    "lng": 144.3510494},
    {
    "id": 407,
    "name": "Oppe Shoppe",
    "address": "Shop 5/120 High Street, Belmont Victoria",
    "opentime": "Mon - Fri 9:30am - 4:00pm\nSat 10-2\n",
    "lat": -38.172348,
    "lng": 144.3447889},
    {
    "id": 408,
    "name": "Belmont Thrift Shop",
    "address": "17 Settlement Rd Belmont",
    "opentime": "Mon - Fri 9.30-4.30\nSat 10.00-3.00\n",
    "lat": -38.1787444,
    "lng": 144.3518821},
    {
    "id": 409,
    "name": "Scout Association Op Shop",
    "address": "110 High Street, Belmont",
    "opentime": "Mon - Fri 10am to 4.30\nSat 9.30-12.30\n",
    "lat": -38.17237539999999,
    "lng": 144.3452207},
    {
    "id": 410,
    "name": "Kalkee Korner shoppe",
    "address": "93 Francis St Belmont",
    "opentime": "Mon - Fri 10.00-4.00\nSat 9.00-1.00\n",
    "lat": -38.1803747,
    "lng": 144.3482584},
    {
    "id": 411,
    "name": "Lifeline - Belmont",
    "address": "174 High Street, Belmont, Geelong",
    "opentime": "Mon - Fri 9.00-4.00\nSat 10.00-2.30\n",
    "lat": -38.17476129999999,
    "lng": 144.34277319999998},
    {
    "id": 412,
    "name": "3216 Connect",
    "address": "2 Dendle Street Grovedale",
    "opentime": "Wed - Fri 10am-4pm\nSat First of Month 9am - 1pm\n",
    "lat": -38.19555220000001,
    "lng": 144.34604199999998},
    {
    "id": 413,
    "name": "Chattels and chat ",
    "address": "cnr Reserve and Torquay Road  Grovedale",
    "opentime": "Wed - Thu 10 - 4 pm\nFri 11 - 3pm\nSat 10 - 4pm\n",
    "lat": -38.2049369,
    "lng": 144.34063380000003},
    {
    "id": 414,
    "name": "Grovedale Salvos",
    "address": "Shop 3, 150 Torquay Road, Grovedale",
    "opentime": "Mon - Fri 9.30-5.30\nSat 9.00-2.00\n",
    "lat": -38.1940162,
    "lng": 144.3427144},
    {
    "id": 415,
    "name": "Brotherhood Grovedale",
    "address": "194 Torquay Road, Grovedale",
    "opentime": "Mon - Fri 9:30am - 5pm\nSat 9.30 am to 4.30 pm\n",
    "lat": -38.1978256,
    "lng": 144.34265459999997},
    {
    "id": 416,
    "name": "First Options Op Shop",
    "address": "8 Porter Ave, HIGHTON 3216",
    "opentime": "Mon - Fri 10am-4-pm\n",
    "lat": -38.18083060000001,
    "lng": 144.3171835},
    {
    "id": 417,
    "name": "Geelong West Salvos Stores",
    "address": "4/23 Pakington Street, Geelong West VIC 3218",
    "opentime": "Mon - Fri 9.30-5.30\nSat 9.00-4.00\n",
    "lat": -38.1336575,
    "lng": 144.3493627},
    {
    "id": 418,
    "name": "MS Community Shop - GEELONG",
    "address": "1/96 Pakington St, Geelong West, 3218",
    "opentime": "Mon - Fri 10am - 5pm\nSat 9am - 3pm\nSun CLOSED\n",
    "lat": -38.1417383,
    "lng": 144.3483193},
    {
    "id": 419,
    "name": "Lifeline - Geelong West",
    "address": "88 Pakington Steet, Geelong West, Vic",
    "opentime": "Mon - Fri 9am - 4pm\nSat 10am - 1pm\n",
    "lat": -38.13722620000001,
    "lng": 144.3491873},
    {
    "id": 420,
    "name": "Vinnies Geelong West",
    "address": "53-55 Pakington Street, Geelong West VIC 3218",
    "opentime": "Mon - Sat 9:00 AM - 5:00 PM\nSun 9:30 AM - 4:30 PM\n",
    "lat": -38.135090000000005,
    "lng": 144.3491784},
    {
    "id": 421,
    "name": "RSPCA",
    "address": "1/227 Autumn St, Geelong West",
    "opentime": "Mon - Fri 9:00am - 4:00pm\nSat: 9:00am - 12:00pm\n",
    "lat": -38.1418097,
    "lng": 144.3363396},
    {
    "id": 422,
    "name": "R.S.P.C.A.",
    "address": "227 Autumn Street, Geelong West, Victoria",
    "opentime": "Mon to Fri 8-30 to 3-30 Sat 9-00 to 12-30\n",
    "lat": -38.1418097,
    "lng": 144.3363396},
    {
    "id": 423,
    "name": "Fight Cancer Foundation Recycle Stop",
    "address": "203 Pakington Street Geelong West",
    "opentime": "Mon - Fri 10.00 am - 4.00 pm\nSat 9.30 am - 01.00 pm\nSun Closed\n",
    "lat": -38.142866,
    "lng": 144.3476808},
    {
    "id": 424,
    "name": "Ormond Village Op Shop",
    "address": "140 Ormond Rd, EAST GEELONG 3219",
    "opentime": "Unknown\n",
    "lat": -38.164986299999995,
    "lng": 144.3804126},
    {
    "id": 425,
    "name": "St. Mathews",
    "address": "269 Myers Street, Geelong East",
    "opentime": "Mon-Fri 9am to 5pm; Sat 9am to 1pm\n",
    "lat": -38.1549447,
    "lng": 144.3721821},
    {
    "id": 426,
    "name": "Heaven Cent Op shop",
    "address": "56a Watsons road Newcomb",
    "opentime": "Mon - Fri 9.45am to 4.30pm\nSat 9am to 12 noon\n",
    "lat": -38.16505170000001,
    "lng": 144.3905562},
    {
    "id": 427,
    "name": "Recycle Shop",
    "address": "Cnr Haworth Crt & Boundary Rd, Breakwater",
    "opentime": "Mon - Fri 9.00-4.00\nSat 9.00-3.00\n",
    "lat": -38.1840221,
    "lng": 144.38165130000002},
    {
    "id": 428,
    "name": "Apollo Place Pre-Loved",
    "address": "21 Apollo Pl, Whittington 3219",
    "opentime": "Mon - Fri Monday 10am-3.30pm\n",
    "lat": -38.1791268,
    "lng": 144.3948106},
    {
    "id": 429,
    "name": "Readystart",
    "address": "138a Wilson's Road Whittington",
    "opentime": "Mon 9.30 am - 4pm\nTue 9.30am- 4pm\nWed 9.30 am- 4pm\nThu 9.30am - 4pm\nFri 9.30am- 4pm\n",
    "lat": -38.17224849999999,
    "lng": 144.3904775},
    {
    "id": 430,
    "name": "Lifeline Op Shop ",
    "address": "13 James Street, Geelong CBD",
    "opentime": "Mon - Fri 9am - 4pm\nSat 9am - 12pm\n",
    "lat": -38.148507200000005,
    "lng": 144.3588127},
    {
    "id": 431,
    "name": "Geelong Red Cross",
    "address": "136 Moorabool Street, Geelong, 3220 ",
    "opentime": "Mon - Fri 9:30am - 4:00pm\nSat 9.30am - 1pm\n",
    "lat": -38.14862249999999,
    "lng": 144.3598452},
    {
    "id": 432,
    "name": "Salvo's store",
    "address": "16-18 Malop St, geelong",
    "opentime": "Mon - Fri 9.00-5.30\nSat 9.00-5.00\n",
    "lat": -38.147061,
    "lng": 144.359019},
    {
    "id": 433,
    "name": "Geelong Hospital Auxilary",
    "address": "171 Malop Street, Geelong",
    "opentime": "Mon to Fri 10:00 to 2:00\n",
    "lat": -38.148275700000006,
    "lng": 144.3650917},
    {
    "id": 434,
    "name": "Vinnies Geelong South",
    "address": "162 Fyans Street, Geelong South VIC 3220",
    "opentime": "Mon - Fri 9:00 AM - 5:00 PM\nSat 9:00 AM - 5:00 PM\nSun Closed\n",
    "lat": -38.1652727,
    "lng": 144.3647471},
    {
    "id": 435,
    "name": "Lifeline Warehouse and Distribution Centre",
    "address": "97 Strong Street, Geelong South",
    "opentime": "Unknown\n",
    "lat": -38.1710461,
    "lng": 144.3706991},
    {
    "id": 436,
    "name": "Geelong South (Barwon Tce) Salvos",
    "address": "81 Barwon Terrace, Geelong South VIC 3220",
    "opentime": "Mon - Fri 9.00-5.30\nSat 9.00-5.00\n",
    "lat": -38.1694571,
    "lng": 144.36589009999997},
    {
    "id": 437,
    "name": "Moolap Salvos Store",
    "address": "Cnr Albert Street & Portarlington Road, Moolap VIC 3321",
    "opentime": "Mon - Fri 9.00-5.30\nSat 9.00-4:00\n",
    "lat": -38.1646095,
    "lng": 144.41506130000002},
    {
    "id": 438,
    "name": "Lifeline - Drysdale",
    "address": "Village Walk Shop 9 & 10, 21 Clifton Springs Road, Drysdale",
    "opentime": "Mon - Fri 9.00-4.00\nSat 9.00-12.00\n",
    "lat": -38.171637200000006,
    "lng": 144.570249},
    {
    "id": 439,
    "name": "Fight Cancer Foundation Drysdale Recycle Shop",
    "address": "Shop 2a, 6 High Street, Drysdale VIC ",
    "opentime": "Mon - Fri 10.00am - 4.00pm\nSat 9.30am - 1.00pm\n",
    "lat": -38.1731971,
    "lng": 144.57029630000002},
    {
    "id": 440,
    "name": "Village Op Shop",
    "address": "Shop 9/10 Village Walk, Drysdale VIC 3222",
    "opentime": "Mon - Fri 10.00-4.00\nSat 9.30-12.00\n",
    "lat": -38.1716865,
    "lng": 144.57026630000001},
    {
    "id": 441,
    "name": "Second Chance Drysdale",
    "address": "5 Mortimer Street Drysdale",
    "opentime": "Mon 10am - 4pm\nTue - Thu 10am - 3pm\nFri 10am - 4pm\nSat 10am - 2pm\nSun Closed\n",
    "lat": -38.174314,
    "lng": 144.57560700000002},
    {
    "id": 442,
    "name": "Drysdale Salvos Store",
    "address": "8 Mortimer Street, Drysdale VIC 3222",
    "opentime": "Mon - Fri 9.00-5.30\nSat 9.00-5.00\n",
    "lat": -38.1742311,
    "lng": 144.5751121},
    {
    "id": 443,
    "name": "Second Chance Portarlington",
    "address": "40 Geelong Road Portarlington",
    "opentime": "Mon - Sat 10am - 3pm\nSun Closed\n",
    "lat": -38.11653159999999,
    "lng": 144.64235980000004},
    {
    "id": 444,
    "name": "Pearly Gates",
    "address": "Longview Avenue, Leopold ",
    "opentime": "Mon - Fri 10.am - 4.30pm\nSat 9.00am - 12 noon\n",
    "lat": -38.1894032,
    "lng": 144.4707605},
    {
    "id": 445,
    "name": "Salvos Thrift Shop Leopold",
    "address": "49 Ash Road VIC",
    "opentime": "Mon - Fri 10am - 4pm\nSat 10am - 2pm\n",
    "lat": -38.1939078,
    "lng": 144.46836130000003},
    {
    "id": 446,
    "name": "Uniting Church Op Shop",
    "address": "Corner Ash Rd & Bellarine Highway, Leopold",
    "opentime": "Mon- Sat 9.30am-1pm\n",
    "lat": -38.19033930000001,
    "lng": 144.46876509999998},
    {
    "id": 447,
    "name": "Pt Lonsdale Op Shop",
    "address": "Pt Lonsdale Rd, Pt Lonsdale 3225",
    "opentime": "Unknown\n",
    "lat": -38.279876,
    "lng": 144.6159047},
    {
    "id": 448,
    "name": "Vinnies Queenscliff",
    "address": "31 Hesse Street, Queenscliff VIC 3225",
    "opentime": "Mon - Sun 10:00 AM - 4:00 PM\n",
    "lat": -38.266610899999996,
    "lng": 144.6618897},
    {
    "id": 449,
    "name": "The Vestry Shop @ Queenscliff Uniting Church",
    "address": "83-89 Hesse Street, Queenscliff Vic 3225",
    "opentime": "10.30 am to 4.30 pm Daily\n",
    "lat": -38.2687058,
    "lng": 144.6601195},
    {
    "id": 450,
    "name": "the dove",
    "address": "107 The Parade,Ocean Grove",
    "opentime": "Mon - Fri 10am-4pm\nSat 10am-1pm\n",
    "lat": -38.266825700000005,
    "lng": 144.5270978},
    {
    "id": 451,
    "name": "Vinnies Ocean Grove",
    "address": "18 Marine Parade, Ocean Grove VIC 3226",
    "opentime": "Mon - Fri 09.00AM-5.00PM\nSat 9:30 AM - 1:00 PM\n",
    "lat": -38.2518126,
    "lng": 144.5375128},
    {
    "id": 452,
    "name": "Gum-Nut Grove Op Shop",
    "address": "28 Hodgson St, Ocean Grove",
    "opentime": "Mon- Sat\n",
    "lat": -38.266641,
    "lng": 144.5244731},
    {
    "id": 453,
    "name": "All Saints",
    "address": "61 Hitchcock Avenue Barwon Heads",
    "opentime": "Unknown\n",
    "lat": -38.2802086,
    "lng": 144.49171090000002},
    {
    "id": 454,
    "name": "All Saints Op Shop",
    "address": "Hitchcock Ave, Barwon Heads",
    "opentime": "Tue 9.30-1.00 school hols\nWed 9.30-1.00\nFri - Sat 9.30-1.00\n",
    "lat": -38.2800716,
    "lng": 144.49188480000004},
    {
    "id": 455,
    "name": "Op Shop &amp;amp; Book Shop",
    "address": "Anglesea & School Rds Bellbrae",
    "opentime": "Thu - Fri 10.00-4.00\nSat 10.00-1.00\n",
    "lat": -38.333333,
    "lng": 144.26666699999998},
    {
    "id": 456,
    "name": "Torquay Thrift Shop",
    "address": "14C Gilbert Street, torquay",
    "opentime": "Mon - Fri 9am - 4:30pm\nSat 9am - 4pm\nSun Closed\n",
    "lat": -38.33198549999999,
    "lng": 144.324499},
    {
    "id": 457,
    "name": "Seaside Seconds",
    "address": "Angelsea",
    "opentime": "Mon - Sat 9.30-4.00\n",
    "lat": -38.4096639,
    "lng": 144.18251709999998},
    {
    "id": 458,
    "name": "Second Sails Opportunity Shop",
    "address": "Shop 5, 22 Pascoe St, Apollo Bay",
    "opentime": "Mon - Fri 9.30-4pm\nSat 9.30-3.30pm\nSun Seasonal opening\n",
    "lat": -38.7575925,
    "lng": 143.66858369999997},
    {
    "id": 459,
    "name": "Forrest op shop",
    "address": "20 Grant St, Forrest VIC 3236",
    "opentime": "Sat 10:30 - 16:00\n",
    "lat": -38.5177463,
    "lng": 143.714451},
    {
    "id": 460,
    "name": "Winchelsea op shop",
    "address": "2 gosney street winchelsea",
    "opentime": "Mon 10:00 -16:00\nFri - Sun 10:00 -16:00\n",
    "lat": -38.24369799999999,
    "lng": 143.986449},
    {
    "id": 461,
    "name": "Vinnies Colac",
    "address": "41 Dennis Street, Colac VIC 3250",
    "opentime": "Mon - Fri 9:00 AM - 4:00 PM\nSat 9:00 AM - 12:00 PM\nSun Closed\n",
    "lat": -38.3382708,
    "lng": 143.5879767},
    {
    "id": 462,
    "name": "Colac Red Cross",
    "address": "124 Murray St, Colac VIC 3250",
    "opentime": "Mon - Fri 9:30am - 5:00pm\nSat 10:00am - 1:00pm\n",
    "lat": -38.3399283,
    "lng": 143.58668459999998},
    {
    "id": 463,
    "name": "LEAP Op Shop",
    "address": "57 Bromfield St Colac",
    "opentime": "Mon - Fri 9.00-4.00\n",
    "lat": -38.34065289999999,
    "lng": 143.587873},
    {
    "id": 464,
    "name": "Lifeline - Colac",
    "address": "227 Murray Street, Colac",
    "opentime": "Mon - Fri 9.00-4.00\nSat 9.30-11.30\n",
    "lat": -38.33925989999999,
    "lng": 143.5829699},
    {
    "id": 465,
    "name": "Thrift store",
    "address": "100 Bromfield St Colac",
    "opentime": "Mon - Fri 9.00-4.00\nSat 9.00-1.00\n",
    "lat": -38.341037,
    "lng": 143.5890337},
    {
    "id": 466,
    "name": "Vinnies Camperdown",
    "address": "156 Manifold Street, Camperdown VIC 3260",
    "opentime": "Mon - Fri 9:30 AM - 4:00 PM\nSat 10:00 AM - 12:00 PM\nSun Closed\n",
    "lat": -38.2326816,
    "lng": 143.1479783},
    {
    "id": 467,
    "name": "Sunnyside Shop",
    "address": "184 manifold st",
    "opentime": "Mon - Fri 9am-4pm\nSat 9am-12pm\nSun First Sunday of the month 9am-12pm\n",
    "lat": -38.2321119,
    "lng": 143.1470459},
    {
    "id": 468,
    "name": "Lifeline Shop",
    "address": "178 Manifold St, Camperdown VIC 3260",
    "opentime": "Mon - Fri 9am-4pm\nSat 9am-12pm\nSun First Sunday of the month 9.30am-12pm\n",
    "lat": -38.2321725,
    "lng": 143.1471439},
    {
    "id": 469,
    "name": "Terang Community Op-Shop",
    "address": "10 Shadforth Street Terang VIC 3264",
    "opentime": "Sat 9am-noon\n",
    "lat": -38.240278100000005,
    "lng": 142.91634009999999},
    {
    "id": 470,
    "name": "Uniting Church Op-Shop ",
    "address": "99 Liebig Street Warrnambool 3280 Vic",
    "opentime": "Mon 9-30am-4-30pm\nTue - Fri 9.30am -4-30pm\nSat 9.30am -1pm\nSun Closed \n",
    "lat": -38.384141299999996,
    "lng": 142.4830304},
    {
    "id": 471,
    "name": "Salvation Army Thrift Shop",
    "address": "197 Lava Street, Warrnambool VIC 3280",
    "opentime": "Mon - Fri 9.00 am - 4.30 pm\nSat 9.00 am - 2.00 pm\nSun Closed\n",
    "lat": -38.3808023,
    "lng": 142.4819014},
    {
    "id": 472,
    "name": "Foster Care Op Shop",
    "address": "207 Koroit St, Warrnambool VIC 3280",
    "opentime": "Mon - Fri 10-4.00\nSat 10-12\nSun Closed\n",
    "lat": -38.3822411,
    "lng": 142.4800081},
    {
    "id": 473,
    "name": "Warrnambool Red Cross",
    "address": "158 Koroit St Warrnambool VIC 3280",
    "opentime": "Mon - Thu 9:30am - 4:30pm\nFri  9.30am - 5:00pm \nSat 9.30am - 1:00pm\n",
    "lat": -38.3827817,
    "lng": 142.4822303},
    {
    "id": 474,
    "name": "RSPCA",
    "address": "120 Fairy Street, Warrnambool",
    "opentime": "Mon- Fri 10:00am - 4:00pm\n",
    "lat": -38.3806354,
    "lng": 142.48017280000002},
    {
    "id": 475,
    "name": "Lifeline Warrnambool Shop",
    "address": "134 Lava Street Warrnambool Victoria 3280",
    "opentime": "Mon - Fri 9.30 to 5.00pm\nSat 9.30 to 1.00pm\n",
    "lat": -38.3810158,
    "lng": 142.483755},
    {
    "id": 476,
    "name": "Vinnies Warrnambool",
    "address": "180 Fairy Street, Warrnambool VIC 3280",
    "opentime": "Mon - Fri 9:00 AM - 5:00 PM\nSat 9:00 AM - 12:00 PM\nSun Closed\n",
    "lat": -38.37894989999999,
    "lng": 142.4813074},
    {
    "id": 477,
    "name": "Lions Club Op Shop",
    "address": "88 High St Koroit ",
    "opentime": "Mon Monday 10.00 AM to 4.00 PM\nTue Closed\nWed Wednesday 10.00 AM to 4.00 PM\nThu Closed\nFri Friday 10.00 AM to 4.00 PM\nSat Saturday 10.00 AM to 1.00 PM\nSun Closed\n",
    "lat": -38.2940266,
    "lng": 142.36818689999998},
    {
    "id": 478,
    "name": "Hamilton Lifeline Op-Shop",
    "address": "45 Brown Street Hamilton",
    "opentime": "Mon - Fri 10am -4pm\nSat - Sun  \n",
    "lat": -37.793999299999996,
    "lng": 175.30427590000002},
    {
    "id": 479,
    "name": "Vinnies Hamilton",
    "address": "69 Cox Street, Hamilton VIC 3300",
    "opentime": "Mon - Fri 9:00 AM - 5:00 PM\nSat 10:00 AM - 1:00 PM\nSun Closed\n",
    "lat": -37.74219,
    "lng": 142.0273552},
    {
    "id": 480,
    "name": "Hamilton VIC Red Cross",
    "address": "165-167 Gray Street, Hamilton VIC 3300",
    "opentime": "Mon - Fri 9:30am - 5:00pm\nSat 9:00am - 12:00pm\n",
    "lat": -37.7427791,
    "lng": 142.0247365},
    {
    "id": 481,
    "name": "RSPCA Portland",
    "address": "44A Percy Street, Portland",
    "opentime": "Mon - Fri 9-3.30\nSat 9-1\nSun Closed\n",
    "lat": -38.3481783,
    "lng": 141.6032439},
    {
    "id": 482,
    "name": "Vinnies Casterton",
    "address": "32 McPherson Street, Casterton VIC 3311",
    "opentime": "Mon - Tue Closed\nWed - Fri 10:00 AM - 3:30 PM\nSat 10:00 AM - 12:00 PM\n",
    "lat": -37.5848085,
    "lng": 141.403726},
    {
    "id": 483,
    "name": "Edenhope Anglican Church Op Shop",
    "address": "62 Wimmera Highway Edenhope Victoria 3318",
    "opentime": "Tue - Fri 10-4\n",
    "lat": -37.035757399999994,
    "lng": 141.29663119999998},
    {
    "id": 484,
    "name": "Hessed Cottage",
    "address": "Shop 1/38 High St. Bannockburn",
    "opentime": "Mon Closed\nTue - Fri 10am-4pm\nSat 10am-1pm\nSun Closed\n",
    "lat": -38.0477555,
    "lng": 144.1695793},
    {
    "id": 485,
    "name": "St Joeys Op Shop",
    "address": "28 Lawler Street Meredith 3333 Victoria",
    "opentime": "Wed 10 a.m. - 4 p.m.\nFri 10 a.m. - 4 p.m.\n",
    "lat": -37.8439787,
    "lng": 144.07230780000003},
    {
    "id": 486,
    "name": "Melton Salvos",
    "address": "2/86-88 High St, Melton VIC 3337",
    "opentime": "Mon - Fri 9.00-5.30\nSat 9.00-5.00\n",
    "lat": -37.6883299,
    "lng": 144.6018398},
    {
    "id": 487,
    "name": "Earth Village Op Shop",
    "address": "43 Unitt St, Melton 3337",
    "opentime": "Mon 10am - 5pm\nTue 9am - 5pm\nWed - Fri 10am - 5pm\nSat 10am - 1:30pm\n",
    "lat": -37.6820426,
    "lng": 144.5840217},
    {
    "id": 488,
    "name": "Lighthouse Melton",
    "address": "55 Bakery Square, Melton 3337",
    "opentime": "Mon - Fri 9-5\n",
    "lat": -37.684146000000005,
    "lng": 144.583593},
    {
    "id": 489,
    "name": "MS Community Shop - MELTON",
    "address": "53 BAKERY SQUARE, MELTON",
    "opentime": "Mon - Fri 9:30am-4:30pm\nSat 9:00am - 1:00pm\n",
    "lat": -37.684141,
    "lng": 144.583666},
    {
    "id": 490,
    "name": "Vinnies Melton",
    "address": "8 Wallace Square, Melton VIC 3337",
    "opentime": "Mon - Fri 9:00 AM - 5:00 PM\nSat 10:00 AM - 12:30 PM\n",
    "lat": -37.682066,
    "lng": 144.58493180000002},
    {
    "id": 491,
    "name": "Baptist Care Op Shop",
    "address": "Melton Baptist Church, Cnr Coburns Rd & West Melton Drive, Melton",
    "opentime": "Tue 10 am - 2:30 pm\nThu 10 am - 2:30 pm\n",
    "lat": -37.6780696,
    "lng": 144.5687012},
    {
    "id": 492,
    "name": "CCCM Shop",
    "address": "100 Coburns Rd. Melton South",
    "opentime": "Tue - Fri 9am - 1:30pm\n",
    "lat": -37.69312539999999,
    "lng": 144.5668091},
    {
    "id": 493,
    "name": "Melton Uniting Church Opportunity Shop - Melton",
    "address": "Melton Station Square, Brooklyn Road MELTON SOUTH. VIC. 3338",
    "opentime": "Mon - Fri 9.00 - 4.00\nSat 9.00 to 4.00pm\nSun Closed\n",
    "lat": -37.702147499999995,
    "lng": 144.5744239},
    {
    "id": 494,
    "name": "Bacchus Marsh Salvos",
    "address": "122 Main Street, Bacchus Marsh VIC 3340",
    "opentime": "Mon - Fri 9.30-5.00\nSat 9.00-1.00\n",
    "lat": -37.6755196,
    "lng": 144.4364674},
    {
    "id": 495,
    "name": "Bacchus Marsh Hospital Ladies Auxillary Op Shop",
    "address": "Gell street, Bacchus Marsh",
    "opentime": "Mon 9:30am - 4;30pm\nTue - Fri 9:30am - 4:30pm\nSat 9:30 - 12:00pm\n",
    "lat": -37.673869,
    "lng": 144.4377846},
    {
    "id": 496,
    "name": "St Vincent De Paul",
    "address": "Mannor street, Bacchus marsh",
    "opentime": "Mon 9 - 11:45am\nThu - Fri 9 - 11:45am\n",
    "lat": -37.6744078,
    "lng": 144.44399860000001},
    {
    "id": 497,
    "name": "Silver Lining Op Shop",
    "address": "Holts Lane, Darley Victoria 3340",
    "opentime": "Wed 10am - 3pm\nThu 10am - 4pm\nFri 10am - 3pm\nSat 10am - 1pm\n",
    "lat": -37.6619224,
    "lng": 144.43223600000002},
    {
    "id": 498,
    "name": "Ballan District Health and Care Op Shop",
    "address": "159 Inglis St",
    "opentime": "Unknown\n",
    "lat": -37.600373,
    "lng": 144.22336299999998},
    {
    "id": 499,
    "name": "Opportunity on Inglis",
    "address": "159 Inglis Street",
    "opentime": "Mon - Fri 10am - 3pm\nSat 10am - 1pm\n",
    "lat": -37.600373,
    "lng": 144.22336299999998},
    {
    "id": 500,
    "name": "Steptoes",
    "address": "Ballan Inglis Street",
    "opentime": "Fri 10-3\nSat 10-1\n",
    "lat": -37.600146200000005,
    "lng": 144.2254552},
    {
    "id": 501,
    "name": "Steptoes Opshop",
    "address": "111 Inglis Street, Ballan 3342",
    "opentime": "Mon - Thu closed\nFri - Sat 9.30am / 3.30pm\n",
    "lat": -37.600522,
    "lng": 144.227815},
    {
    "id": 502,
    "name": "Thrifty Minx Op Shop and Cafe",
    "address": "25 Fisken Street, Ballan, 3342",
    "opentime": "Tue - Fri 10am - 3pm\nSat 10am - 2pm\n",
    "lat": -37.601098,
    "lng": 144.225234},
    {
    "id": 503,
    "name": "Vinnies Alfredton",
    "address": "1824 Sturt Street, Alfredton VIC 3350",
    "opentime": "Mon - Sat 9:00 AM - 5:00 PM\n",
    "lat": -37.5446515,
    "lng": 143.79422390000002},
    {
    "id": 504,
    "name": "Joyces Junkatique",
    "address": "38 Main Rd VIC",
    "opentime": "Unknown\n",
    "lat": -38.143228,
    "lng": 145.8540948},
    {
    "id": 505,
    "name": "Vinnies Ballarat",
    "address": "60 Bridge Mall, Ballarat VIC 3350",
    "opentime": "Mon - Fri 9:00 AM - 5:00 PM\nSat 9:00 AM - 3:00 PM\nSun Closed\n",
    "lat": -37.5627151,
    "lng": 143.86269719999999},
    {
    "id": 506,
    "name": "Ballarat Red Cross",
    "address": "406 Sturt Street, Ballarat, 3350",
    "opentime": "Mon - Fri 10am - 5pm\nSat 9am - 1:30pm\n",
    "lat": -37.5612376,
    "lng": 143.85447230000003},
    {
    "id": 507,
    "name": "Friends of Hospice Op Shop",
    "address": "33 Little Bridge Street",
    "opentime": "Mon - Fri 10.00-4.00pm\nSat - Sun Closed\n",
    "lat": -37.5628304,
    "lng": 143.86188169999997},
    {
    "id": 508,
    "name": "Ballarat Bargain Browser",
    "address": "10 Eastwood St VIC",
    "opentime": "Mon - Fri 9am -4.30 pm\nSat 9am - 1pm\n",
    "lat": -37.6134672,
    "lng": 145.04397590000002},
    {
    "id": 509,
    "name": "Bridge Mall Salvos",
    "address": "86 Bridge Mall, Ballarat",
    "opentime": "Unknown\n",
    "lat": -37.562938200000005,
    "lng": 143.8634732},
    {
    "id": 510,
    "name": "Outreach Furniture Shop",
    "address": "102 Albert St VIC",
    "opentime": "Unknown\n",
    "lat": -37.741603000000005,
    "lng": 145.0231787},
    {
    "id": 511,
    "name": "Ballarat Community Church Op Shop",
    "address": "204 Creswick Road Ballarat VIC 3350",
    "opentime": "Mon - Fri 9:00am-4.00pm\nSat 10.00am-1.00pm\n",
    "lat": -37.553337,
    "lng": 143.853143},
    {
    "id": 512,
    "name": "Lifeline Ballarat",
    "address": "128 Lydiard Street North, Ballarat",
    "opentime": "Mon - Fri 10am - 4:30pm\nSat 10am - 12:30pm\n",
    "lat": -37.558966999999996,
    "lng": 143.8585724},
    {
    "id": 513,
    "name": "Friends of Hospice Op Shop",
    "address": "723 Sturt Street Ballarat 3350",
    "opentime": "Mon - Fri 10am - 4pm\n",
    "lat": -37.56135,
    "lng": 143.8495196},
    {
    "id": 514,
    "name": "Wozzle Wearhouse",
    "address": "11 Grenville St Sth, Ballarat 3350",
    "opentime": "Mon - Fri 10am - 4.30pm\nSat 9am - 12pm\nSun Closed\n",
    "lat": -37.563390500000004,
    "lng": 143.86099730000004},
    {
    "id": 515,
    "name": "Friends of Hospice Op Shop",
    "address": "312 Drummond Street South Ballarat 3350",
    "opentime": "Tue - Fri 11am - 4pm\n",
    "lat": -37.5679357,
    "lng": 143.8458771},
    {
    "id": 516,
    "name": "Uniting Op Shop (Light Lounge)",
    "address": "105 Dana Street ballarat",
    "opentime": "Mon - Fri 10am to 4pm \nSat - Sun Closed \n",
    "lat": -37.564517200000004,
    "lng": 143.85838059999998},
    {
    "id": 517,
    "name": "E.C. Op Shop",
    "address": "449 Doveton St Nth Soldiers Hill",
    "opentime": "Tue - Fri 9:00am to 4:00pm\n",
    "lat": -37.5510427,
    "lng": 143.8565134},
    {
    "id": 518,
    "name": "Opportunity Shop",
    "address": "611 Lydiard St North",
    "opentime": "Wed - Fri 10am - 3pm\n",
    "lat": -37.5475505,
    "lng": 143.8599932},
    {
    "id": 519,
    "name": "Berringa Op-Shop",
    "address": "20 berringa rd, berringa, 3351",
    "opentime": "Sat 10am-12pm\n",
    "lat": -37.774090799999996,
    "lng": 143.69390049999998},
    {
    "id": 520,
    "name": "The Treasure Hunter's Hall",
    "address": "200 Montgomery St, Lake Bolac",
    "opentime": "Sun 10am - 1pm\n",
    "lat": -37.710960299999996,
    "lng": 142.84070559999998},
    {
    "id": 521,
    "name": "St Matthew's Op Shop",
    "address": "204 Forest Street Wendouree",
    "opentime": "Mon - Fri 10am - 4pm\nSat 10am - 2pm\nSun Closed\n",
    "lat": -37.5398169,
    "lng": 143.8316403},
    {
    "id": 522,
    "name": "Ballarat Bargain Browsers",
    "address": "Howitt St Wendouree",
    "opentime": "Unknown\n",
    "lat": -37.540757799999994,
    "lng": 143.8362784},
    {
    "id": 523,
    "name": "Wendouree Salvos",
    "address": "1225 Howitt Street, Wendouree VIC 3355",
    "opentime": "Mon - Fri 9.00-5.30\nSat 9.00-5.00\n",
    "lat": -37.540240000000004,
    "lng": 143.82828999999998},
    {
    "id": 524,
    "name": "Vinnies Wendouree",
    "address": "1247 Howitt Street, Wendouree VIC 3355",
    "opentime": "Mon - Fri 10:00 AM - 4:00 PM\nSat 10:00 AM - 2:00 PM\nSun Closed\n",
    "lat": -37.5402395,
    "lng": 143.8260715},
    {
    "id": 525,
    "name": "Wozzle Warehouse",
    "address": "1231a Howitt St",
    "opentime": "Unknown\n",
    "lat": -37.5399912,
    "lng": 143.8275983},
    {
    "id": 526,
    "name": "Uniting Op Shop (Restore)",
    "address": "1323 Howitt Street, wendouree",
    "opentime": "Mon - Fri 9am to 5pm \nSat 9am to 5pm\nSun Closed \n",
    "lat": -37.53978070000001,
    "lng": 143.82395060000002},
    {
    "id": 527,
    "name": "Uniting Church Opshop",
    "address": "106 Albert St, Sebastopol, VIC 3356",
    "opentime": "Mon Closed\nTue 9am - 2pm \nWed 9am - 2 pm\nThu 9 am - 2pm\nFri 9 am - 2pm \nSat - Sun Closed\n",
    "lat": -37.5907886,
    "lng": 143.8406742},
    {
    "id": 528,
    "name": "Wozzle Wearhouse",
    "address": "Shop 5, 58-60 Albert Street Sebastopol VIC 3356",
    "opentime": "Mon - Fri 10am - 4.30pm\nSat 9.30am - 1pm\nSun Closed\n",
    "lat": -37.587171399999995,
    "lng": 143.840156},
    {
    "id": 529,
    "name": "Uniting Op Shop",
    "address": "899 la Trobe Street, delacombe",
    "opentime": "Mon - Fri 9am to 5pm \nSat 9am to 5pm\nSun Closed\n",
    "lat": -37.5718445,
    "lng": 143.8239989},
    {
    "id": 530,
    "name": "Vinnies Sebastopol",
    "address": "4 Albert Street, Sebastopol VIC 3356",
    "opentime": "Mon - Fri 9:30 AM - 4:00 PM\nSat - Sun closed\n",
    "lat": -37.5825761,
    "lng": 143.840347},
    {
    "id": 531,
    "name": "Carmel Op Shop",
    "address": "263 Albert Street Sebastopol VIC",
    "opentime": "Wed 10am - 12noon\nSat 1st Saturday every month\n",
    "lat": -37.604785,
    "lng": 143.84105},
    {
    "id": 532,
    "name": "Sebastopol Salvos",
    "address": "Cnr Beverin St & Grey St, Sebastopol VIC 3356",
    "opentime": "Mon - Fri 9.00-5.30\nSat 9.00-5.00\n",
    "lat": -37.5889984,
    "lng": 143.8396081},
    {
    "id": 533,
    "name": "Buninyong Lions Litter",
    "address": "202 Warrenheip st Buninyong 3357",
    "opentime": "Fri - Sat 10:00-2:00\n",
    "lat": -37.6457351,
    "lng": 143.885209},
    {
    "id": 534,
    "name": "Recycle Central Op Shop",
    "address": "1 water street creswick 3363",
    "opentime": "Sat - Sun 11 am - 3.30 pm\n",
    "lat": -37.4241379,
    "lng": 143.8961977},
    {
    "id": 535,
    "name": "Beaufort Op Shop",
    "address": "17 Havelock St Beaufort VIC 3373",
    "opentime": "Unknown\n",
    "lat": -37.42936629999999,
    "lng": 143.3818618},
    {
    "id": 536,
    "name": "Beaufort &amp;amp; District op shop",
    "address": "35 Neill st Beaufort",
    "opentime": "Mon - Fri 9-30-4pm\nSat 9-30-2pm \nSun 10-2pm \n",
    "lat": -37.43012710000001,
    "lng": 143.3840987},
    {
    "id": 537,
    "name": "Vinnies Ararat",
    "address": "264 Barkly Street, Ararat VIC 3377",
    "opentime": "Mon - Thu 10:00 AM - 4:00 PM\nFri 10:00 AM - 2:00 PM\nSat 10:00 AM - 1\n",
    "lat": -37.2843394,
    "lng": 142.9350001},
    {
    "id": 538,
    "name": "Save The Children - Ararat",
    "address": "198 - 200 Barkly Street Ararat ",
    "opentime": "Mon - Fri 9am - 4pm\nSat 9am - 12pm\n",
    "lat": -37.2839568,
    "lng": 142.9320834},
    {
    "id": 539,
    "name": "Shabby2chic",
    "address": "2/8 Selkirk Ave, McKinnon VIC 3204",
    "opentime": "Mon - Fri 9.00-5.00\nSat 9.00-1.00\n",
    "lat": -37.913675,
    "lng": 145.047922},
    {
    "id": 540,
    "name": "Vinnies Horsham",
    "address": "7-9 David Street, Horsham VIC 3400",
    "opentime": "Mon - Sat 9:00 AM - 5:00 PM\n",
    "lat": -36.709968200000006,
    "lng": 142.1983024},
    {
    "id": 541,
    "name": "Horsham Red Cross",
    "address": "120 Firebrace Street,\tHorsham VIC 3400",
    "opentime": "Mon - Tue 9:30am - 5:00pm\nWed 9:30am - 4:30pm\nThu - Fri 9:30am - 5:00pm\nSat 9:30am - 1:00pm\n",
    "lat": -36.7161756,
    "lng": 142.1994629},
    {
    "id": 542,
    "name": "Lola's Garage",
    "address": "54 Victoria Street, Nhill",
    "opentime": "Wed - Fri midday - 6pm\nSat 10am - 5pm\n",
    "lat": -36.335403899999996,
    "lng": 141.6473417},
    {
    "id": 543,
    "name": "Vinnies Sunbury",
    "address": "156 O'Shanassy Street, Sunbury VIC 3429",
    "opentime": "Mon - Sat 9:00 AM - 5:00 PM\nSun 10:00 AM - 4:00 PM\n",
    "lat": -37.58293,
    "lng": 144.72820349999998},
    {
    "id": 544,
    "name": "St Mary's Community Store - Sunbury",
    "address": "9 OShannassy Street, Sunbury VIC",
    "opentime": "Tue - Sat 9:30am - 4:00pm\n",
    "lat": -37.579691499999996,
    "lng": 144.7320218},
    {
    "id": 545,
    "name": "Red Cross - Sunbury",
    "address": "80 O'Shanassy St, Sunbury VIC",
    "opentime": "Unknown\n",
    "lat": -37.581436,
    "lng": 144.7295},
    {
    "id": 546,
    "name": "Sunbury Salvos",
    "address": "Unit 3/100 Horne Street , Sunbury VIC 3429",
    "opentime": "Mon - Fri 9.00-5.30\nSat 9.00-1.00\n",
    "lat": -37.5846734,
    "lng": 144.72150380000002},
    {
    "id": 547,
    "name": "Charity's Secret",
    "address": "8A Station Street, Riddells Creek VIC",
    "opentime": "Thu - Fri 10am - 4pm\nSat 10am - 1pm\n",
    "lat": -37.46358529999999,
    "lng": 144.6779031},
    {
    "id": 548,
    "name": "Opportunity Knock Op Shop",
    "address": "34 HighStreet Lancefield 3435",
    "opentime": "Mon - Fri 10-4\nSat 10-1\nSun Closed\n",
    "lat": -37.276549700000004,
    "lng": 144.73367030000003},
    {
    "id": 549,
    "name": "Gisborne Salvos",
    "address": "1-2/50 Aitken Street, Gisborne VIC 3437",
    "opentime": "Mon - Fri 9.00-5.30\nSat 9.00-1.00\n",
    "lat": -37.4888976,
    "lng": 144.59056040000002},
    {
    "id": 550,
    "name": "St. Paul's Op Shop Gisborne ",
    "address": "Cnr. Fisher & Brantome Sts. Gisborne ",
    "opentime": "Mon CLOSED\nTue 10AM - 1PM\nWed - Fri 10AM - 4PM\nSat 10AM - 1PM\nSun CLOSED\n",
    "lat": -37.488285299999994,
    "lng": 144.5894694},
    {
    "id": 551,
    "name": "Opportunity Shop",
    "address": "Shop  107 High St, Woodend, Vic, 3442",
    "opentime": "Mon .Monday - 9:30am - 3pm\nThu Thursday - 9:30 - 3pm\nFri Friday 9:30am - 3:30pm\nSat Saturday 9:30am - 1pm.\n",
    "lat": -37.3554898,
    "lng": 144.5281757},
    {
    "id": 552,
    "name": "Woodend Salvos",
    "address": "Shop 16, 130 High Street, Woodend VIC 3442",
    "opentime": "Mon - Fri 9.00-5.00\nSat 9.00-1.00\n",
    "lat": -37.3559953,
    "lng": 144.52939419999998},
    {
    "id": 553,
    "name": "Kyneton Salvos",
    "address": "162B Mollison Street, Kyneton VIC 3444",
    "opentime": "Mon - Fri 9.30-5.30\nSat 9.00-1.00\n",
    "lat": -37.2461774,
    "lng": 144.45397169999998},
    {
    "id": 554,
    "name": "Opportunty Shop",
    "address": "Shop  22 Market St, Kyneton",
    "opentime": "Unknown\n",
    "lat": -37.248909600000005,
    "lng": 144.4548825},
    {
    "id": 555,
    "name": "RSPCA",
    "address": "86 Forest Street,Castlemaine",
    "opentime": "Mon - Fri: 10:30am - 4:00pm\nSat: open during daylight savings time\n",
    "lat": -37.06747,
    "lng": 144.2206891},
    {
    "id": 556,
    "name": "Vinnies Castlemaine",
    "address": "244 Barker Street, Castlemaine VIC 3450",
    "opentime": "Mon - Wed 10:00 AM - 4:00 PM\nThu - Fri 9:00 AM - 4:00 PM\n",
    "lat": -37.06239070000001,
    "lng": 144.21763149999998},
    {
    "id": 557,
    "name": "Thrift Shop",
    "address": "510 Barker Street, Castlemaine ",
    "opentime": "Mon 10am - 4pm\nTue - Fri 10am - 4pm \nSat - Sun Not open \n",
    "lat": -37.0511355,
    "lng": 144.21886619999998},
    {
    "id": 558,
    "name": "Vinnies Daylesford",
    "address": "28 Howe Street, Daylesford VIC 3460",
    "opentime": "Mon 10:00 AM - 4:00 PM\nTue - Sat 9:00 AM - 5:00 PM\n",
    "lat": -37.3411148,
    "lng": 144.1439461},
    {
    "id": 559,
    "name": "Daylesford Community OP shop",
    "address": "6 Mink Street Daylesford 3460. PO Box 627",
    "opentime": "Mon - Fri 10.00am-4.00pm\nSat 10:00am-4:00pm\n",
    "lat": -37.34588420000001,
    "lng": 144.1558611},
    {
    "id": 560,
    "name": "MS Community Shop - DAYLESFORD",
    "address": "4 Duke Street, DAYLESFORD",
    "opentime": "Mon - Fri 10:00am - 4:30pm\nSat 10:00am - 1:00pm\n",
    "lat": -37.3424358,
    "lng": 144.1436967},
    {
    "id": 561,
    "name": "Scout Opp Shop",
    "address": "High St Maryborough Vic",
    "opentime": "Mon 10am - 4 pm\nTue 10am - 4pm\nWed 10 am - 4pm\nThu - Fri 10am - 4pm\nSat - Sun closed\n",
    "lat": -37.0485809,
    "lng": 143.7351527},
    {
    "id": 562,
    "name": "Thrift Store",
    "address": "82 Alma Street,Maryborough,Vic,3465",
    "opentime": "Mon - Fri 9am-5pm\nSat 9am-12pm\n",
    "lat": -37.046803499999996,
    "lng": 143.7392812},
    {
    "id": 563,
    "name": "Vinnies St Arnaud",
    "address": "35 Napier Street, St Arnaud VIC 3478",
    "opentime": "Mon - Fri 9:00 AM - 4:00 PM\nSat - Sun Closed\n",
    "lat": -36.6157251,
    "lng": 143.2572594},
    {
    "id": 564,
    "name": "Evolve Op Shop",
    "address": "113-115 Napier St, St Arnaud Victoria ",
    "opentime": "Mon 10.00- 4.00\nTue - Fri 10.00 - 4.00\nSat 10.00 - 1.00\nSun Closed\n",
    "lat": -36.6132898,
    "lng": 143.2553039},
    {
    "id": 565,
    "name": "When Opportunity Knocks",
    "address": "57 Brooke St, Woomelang",
    "opentime": "Thu 2-5pm\nFri 1-4pm\nSat 10-12noon\n",
    "lat": -35.6807097,
    "lng": 142.6641129},
    {
    "id": 566,
    "name": "Vinnies Ouyen",
    "address": "VRI Hall Farrell Street, Ouyen VIC 3490",
    "opentime": "Mon 9:00 AM - 3:00 PM\nTue 10:00 AM - 3:00 PM\nWed CLOSED\nThu - Fri 10:00 AM - 3:00 PM\n",
    "lat": -35.0704201,
    "lng": 142.3192404},
    {
    "id": 567,
    "name": "MS Community Shop - MILDURA",
    "address": "120 LIME AVE, MILDURA",
    "opentime": "Mon - Fri 9:30am - 4:30pm\nSat 10:00am - 12:00pm\n",
    "lat": -34.1861742,
    "lng": 142.1575371},
    {
    "id": 568,
    "name": "Mildura Red Cross",
    "address": "104 Langtree Avenue, Mildura VIC 3500",
    "opentime": "Mon - Fri 9:30am - 5:00pm\nSat 9:30am - 1:00pm\n",
    "lat": -34.1864575,
    "lng": 142.1591104},
    {
    "id": 569,
    "name": "Vinnies Mildura",
    "address": "79 Lime Avenue, Mildura VIC 3500",
    "opentime": "Mon - Fri 9:00 AM - 5:00 PM\nSat 9:00 AM - 1:00 PM\nSun Closed\n",
    "lat": -34.1842245,
    "lng": 142.1587394},
    {
    "id": 570,
    "name": "RSPCA",
    "address": "1/72 Lime Ave Mildura, 3500",
    "opentime": "Mon - Fri 9:30am - 4:00pm\nSat 9:00am - 12:00pm\n",
    "lat": -34.18447929999999,
    "lng": 142.1596515},
    {
    "id": 571,
    "name": "Little Sprouts Op Shop &amp;amp; Cafe",
    "address": "37 Pine Avenue Mildura VIC",
    "opentime": "Tue - Fri 10am - 3pm\nSat 10am - 1pm\n",
    "lat": -34.18193170000001,
    "lng": 142.1598174},
    {
    "id": 572,
    "name": "ADRA Sunraysia",
    "address": "35 Seventh Street East MILDURA VIC 3502",
    "opentime": "Mon - Thu 9am - 5:30pm\nFri 9am - 5pm\nSun 10am - 4pm\n",
    "lat": -34.19433720000001,
    "lng": 142.17659009999997},
    {
    "id": 573,
    "name": "Merbein Red Cross",
    "address": "74A Commercial Street, Merbein VIC 3505",
    "opentime": "Mon - Fri 10:15am - 4:30pm\nSat 9:30am - 12:00pm\n",
    "lat": -34.1681371,
    "lng": 142.0597105},
    {
    "id": 574,
    "name": "The Old Fire Shed Op Shop",
    "address": "16 Cathcart St Marong 3515",
    "opentime": "Fri 9.30am-1.30pm\nSat 10am-12noon\n",
    "lat": -36.7339642,
    "lng": 144.13236799999999},
    {
    "id": 575,
    "name": "Helping Hands Bridgewater Op Shop",
    "address": "18 Main Street Bridgewater",
    "opentime": "Mon - Fri 10am - 4pm\nSat - Sun 10am - 2pm\n",
    "lat": -36.601899100000004,
    "lng": 143.94203480000002},
    {
    "id": 576,
    "name": "Wedderburn community op shop ",
    "address": "24 Wilson st wedderburn vic",
    "opentime": "Wed - Fri 10-3.30\n",
    "lat": -36.4187905,
    "lng": 143.6110523},
    {
    "id": 577,
    "name": "\"Buddies\" Heathcote Anglican Op Shop",
    "address": "165 High Street, Heathcote",
    "opentime": "Mon - Wed CLOSED\nThu - Sat 9-1.30(ish)\nSun CLOSED\n",
    "lat": -36.9200581,
    "lng": 144.7064374},
    {
    "id": 578,
    "name": "Wyche Op Shop",
    "address": "271 Broadway Wycheproof",
    "opentime": "Tue 10am-4.00pm\nFri 10.00am-4.00pm\n",
    "lat": -36.077377399999996,
    "lng": 143.22510559999998},
    {
    "id": 579,
    "name": "Boort Op Shop",
    "address": "Godfrey Street Boort ",
    "opentime": "Tue 9am - 4pm\nFri 9am - 4pm\nSat 9am - 12noon\n",
    "lat": -36.1168885,
    "lng": 143.7253603},
    {
    "id": 580,
    "name": "High Street Salvos",
    "address": "57 High Street, Bendigo VIC 3550",
    "opentime": "Mon - Fri 9.00-5.30\nSat 10.00-2.00\n",
    "lat": -36.7606559,
    "lng": 144.2769207},
    {
    "id": 581,
    "name": "Vinnies Bendigo",
    "address": "31 Chapel Street, Bendigo VIC 3550",
    "opentime": "Mon - Fri 9:00 AM - 5:00 PM\nSat 9:00 AM - 4.00 PM\n",
    "lat": -36.757527,
    "lng": 144.2859751},
    {
    "id": 582,
    "name": "Victory Op Shop",
    "address": "110 Garsed street Bendigo",
    "opentime": "Mon - Fri 10am-5pm\nSat 10am-1pm\n",
    "lat": -36.7665703,
    "lng": 144.2767592},
    {
    "id": 583,
    "name": "Life Essential",
    "address": "214 Hargraves St Bendigo",
    "opentime": "Mon - Fri 9:30 - 4:30\nSat 9:30 - 1\n",
    "lat": -36.7581835,
    "lng": 144.2823992},
    {
    "id": 584,
    "name": "Vision Australia",
    "address": "3 Wills Street, bendigo",
    "opentime": "Mon - Fri 8:30 - 5pm\n",
    "lat": -36.762874,
    "lng": 144.2812949},
    {
    "id": 585,
    "name": "Storehouse - Bendigo",
    "address": "17 Mitchel St, Bendigo",
    "opentime": "Mon 10:00am - 5:0pm\nTue - Fri 10:00am - 5:00pm\nSat 10:00am - 5:00pm \nSun closed\n",
    "lat": -36.760030900000004,
    "lng": 144.2792532},
    {
    "id": 586,
    "name": "Red Cross Shop Bendigo",
    "address": "293 Lyttleton terrace bendigo",
    "opentime": "Mon - Fri 9am - 5:30pm\nSat 9:30am - 4:00pm\n",
    "lat": -36.7611969,
    "lng": 144.2820718},
    {
    "id": 587,
    "name": "Giving &amp;amp; Living Op Shop ",
    "address": "Shed 3, 75 Beischer Street  East Bendigo 3550",
    "opentime": "Unknown\n",
    "lat": -36.7513489,
    "lng": 144.3096509},
    {
    "id": 588,
    "name": "Cure Cancer Shop",
    "address": "91 beischer street Bendigo",
    "opentime": "Mon - Fri 10-5\n",
    "lat": -36.7497195,
    "lng": 144.308597},
    {
    "id": 589,
    "name": "Local Bendigo Thrift Shop",
    "address": "47b Eaglehawk Road, Bendigo, 3550",
    "opentime": "Mon - Wed 8.30 to 4.30\nThu - Fri 9.30 to 4.30\nSat 9.30 to 1.30\n",
    "lat": -36.7559439,
    "lng": 144.2643565},
    {
    "id": 590,
    "name": "Eaglehawk Salvo Thrift Shop ",
    "address": "6 marong Road, Bendigo",
    "opentime": "Mon - Tue 11:00 - 5:00\nWed - Fri 9:00 - 5:00\nSat 10:00 - 2:00\nSun closed\n",
    "lat": -36.7561414,
    "lng": 144.2616512},
    {
    "id": 591,
    "name": "MS Community Shop - BENDIGO",
    "address": "Cnr Edwards Rd & Condon Street, Bendigo",
    "opentime": "Mon - Fri 9:30am - 5:00pm\nSat 9am - 1:00pm\n",
    "lat": -36.773269299999995,
    "lng": 144.3051331},
    {
    "id": 592,
    "name": "Strath Hill Salvos",
    "address": "Shop 6/98 Edwards Road Strath-Hill Centre, Strathdale VIC 3550",
    "opentime": "Mon - Fri 9.30-5.30\nSat 9.00-1.00\n",
    "lat": -36.77271,
    "lng": 144.304974},
    {
    "id": 593,
    "name": "Bendigo (Whip Court) Salvos",
    "address": "9 Whip Court, Long Gully VIC 3550",
    "opentime": "Mon - Fri 9.00-5.00\nSat 9.00-1.00\n",
    "lat": -36.7418086,
    "lng": 144.2625962},
    {
    "id": 594,
    "name": "Uniting Care White Hills",
    "address": "506 Napier St White Hills",
    "opentime": "Mon - Fri 10am - 4pm\nSat 9am-1pm\n",
    "lat": -36.7292141,
    "lng": 144.3069176},
    {
    "id": 595,
    "name": "Salvation Army",
    "address": "320 Epsom Rd, Ascot Vale VIC 3032",
    "opentime": "Unknown\n",
    "lat": -37.7822154,
    "lng": 144.9150315},
    {
    "id": 596,
    "name": "Giving &amp;amp; Living Op Shop",
    "address": "671 Midland Highway Huntly",
    "opentime": "Mon - Fri 10am-4pm\nSat closed until further notice\nSun closed\n",
    "lat": -36.6617434,
    "lng": 144.3362148},
    {
    "id": 597,
    "name": "Bendigo RSPCA",
    "address": "98 Queen Street, Bendigo",
    "opentime": "Mon - Fri 9-4\nSat 9-2\n",
    "lat": -36.7632513,
    "lng": 144.27730060000002},
    {
    "id": 598,
    "name": "Bendigo Salvation Army Thrift Shop",
    "address": "2B Thistle Street, Golden Square, Vic, 3555",
    "opentime": "Mon - Fri 9.30-4.30\nSat 9.30-1.30\n",
    "lat": -36.7754114,
    "lng": 144.2719844},
    {
    "id": 599,
    "name": "UnitingCare Golden Square",
    "address": "Cnr Panton & Laurel Sts, Golden Square",
    "opentime": "Mon - Fri 9am-4pm\nSat 9am-1pm\n",
    "lat": -36.772184499999995,
    "lng": 144.2623003},
    {
    "id": 600,
    "name": "Kangaroo Flat Salvos",
    "address": "301 high street Kangaroo Flat, VIC",
    "opentime": "Mon - Fri 9.00-5.30\nSat 9.00-1.00\n",
    "lat": -36.8116529,
    "lng": 144.2408145},
    {
    "id": 601,
    "name": "Vinnies Kangaroo Flat",
    "address": "117-119 High Street, Kangaroo Flat VIC 3555",
    "opentime": "Mon - Sat 9:00 AM - 5:00 PM\n",
    "lat": -36.795798600000005,
    "lng": 144.2444377},
    {
    "id": 602,
    "name": "The smallest OP Shop",
    "address": "21 Woolcock Avenue Kangaroo Flat",
    "opentime": "Mon - Fri 10am to 4pm\n",
    "lat": -36.803805,
    "lng": 144.235188},
    {
    "id": 603,
    "name": "Uniting Care California Gully",
    "address": "324 Eaglehawk Road, California Gully",
    "opentime": "Mon - Fri 10am - 4pm\nSat 10am - 1:30pm\n",
    "lat": -36.730767900000004,
    "lng": 144.25824419999998},
    {
    "id": 604,
    "name": "The Eaglehawk Op Shop",
    "address": "3 Sailors Gully Road, Eaglehawk",
    "opentime": "Mon - Fri 10am-4pm\nSat 10am-12pm\n",
    "lat": -36.7166336,
    "lng": 144.250879},
    {
    "id": 605,
    "name": "Vinnies Eaglehawk",
    "address": "23 High Street, Eaglehawk VIC 3556",
    "opentime": "Mon - Fri 10:00 AM - 4:00 PM\nSat 9:00 AM - 12:30 PM\nSun Closed\n",
    "lat": -36.7180911,
    "lng": 144.2533773},
    {
    "id": 606,
    "name": "Epicentre Op Shop",
    "address": "75 Ogilvie Ave Echuca VIC 3564",
    "opentime": "Mon - Fri 9.30am - 4.00pm\nSat 9.30am - 12.30pm\n",
    "lat": -36.140970200000005,
    "lng": 144.763301},
    {
    "id": 607,
    "name": "Recyclability Op Shop",
    "address": "4 Percy Street Echuca ",
    "opentime": "Mon - Fri 10am - 3pm\nSat 10am - 1pm\n",
    "lat": -36.1249653,
    "lng": 144.750777},
    {
    "id": 608,
    "name": "Vinnies Echuca",
    "address": "11 Nish Street, Echuca VIC 3564",
    "opentime": "Mon - Fri 9:00 AM - 5:00 PM\nSat 10:00 AM - 1:00 PM\nSun Closed\n",
    "lat": -36.129585999999996,
    "lng": 144.75083},
    {
    "id": 609,
    "name": "Echuca Red Cross",
    "address": "Fountain Plaza, 196 Hare St,\tEchuca VIC 3564",
    "opentime": "Mon - Fri 9:30am - 4:00pm\nSat 10:00am - 12:30pm\nSun Closed\n",
    "lat": -36.1273525,
    "lng": 144.7495237},
    {
    "id": 610,
    "name": "Cohuna Anglican Op Shop",
    "address": "Corner king edward and cullen street cohuna",
    "opentime": "Unknown\n",
    "lat": -35.8094296,
    "lng": 144.2198427},
    {
    "id": 611,
    "name": "Bus Stop Recycle Shop",
    "address": "22 Nolan Street, Kerang, Victoria",
    "opentime": "Mon Monday 10 - 4\nTue Tuesday 10 - 4\nWed Wednesday 10 - 4\nThu Thursday 10 - 4\nFri Friday 10 - 4\nSat Saturday 10 - 1\nSun Closed\n",
    "lat": -35.733517799999994,
    "lng": 143.9170434},
    {
    "id": 612,
    "name": "Vinnies Kerang",
    "address": "8-10 Victoria Street, Kerang VIC 3579",
    "opentime": "Mon - Fri 10:00 AM - 4:00 PM\nSat 9:00 AM - 12:00 PM\nSun Closed\n",
    "lat": -35.735928,
    "lng": 143.9200628},
    {
    "id": 613,
    "name": "Vinnies Swan Hill",
    "address": "140 Curlewis Street, Swan Hill VIC 3585",
    "opentime": "Mon - Fri 10:00 AM - 4:00 PM\nSat 10:00 AM - 12:00 PM\nSun Closed\n",
    "lat": -35.3415429,
    "lng": 143.5614821},
    {
    "id": 614,
    "name": "Swan Hill Red Cross",
    "address": "258 Campbell Street\tSwan Hill VIC 3585",
    "opentime": "Mon - Fri 9:30am - 4:30pm\nSat 9:30am - 12:30pm\n",
    "lat": -35.341552,
    "lng": 143.5600035},
    {
    "id": 615,
    "name": "nagambie op shop",
    "address": "GV highway",
    "opentime": "Unknown\n",
    "lat": -36.499697999999995,
    "lng": 145.38827949999998},
    {
    "id": 616,
    "name": "Murchison Neighbourhood House Pre-Loved Shop",
    "address": "23 Impey Street, Murchison, Victoria",
    "opentime": "Mon - Fri 9:30am - 2:30pm\nSat - Sun closed\n",
    "lat": -36.6186677,
    "lng": 145.214291},
    {
    "id": 617,
    "name": "Vinnies Tatura",
    "address": "3 Francis Street, Tatura VIC 3616",
    "opentime": "Mon - Fri 10:00 AM - 4:00 PM\nSat 10:00 AM - 12:00 PM\nSun Closed\n",
    "lat": -36.44077490000001,
    "lng": 145.2280602},
    {
    "id": 618,
    "name": "Vinnies Kyabram",
    "address": "111 Allan Street, Kyabram VIC 3620",
    "opentime": "Mon - Fri 9:30 AM - 4:00 PM\nSat 10:00 AM - 1:00 PM \nSun Closed\n",
    "lat": -36.3133659,
    "lng": 145.0443221},
    {
    "id": 619,
    "name": "The Salvation Army Thrift Shop",
    "address": "3 Mill Street, Mooroopna",
    "opentime": "Mon - Fri 8.30am-4.30pm\n",
    "lat": -36.393913,
    "lng": 145.360651},
    {
    "id": 620,
    "name": "LIFE OPSHOP",
    "address": "4, MILL ST. MOOROOPNA",
    "opentime": "Mon - Fri 9.30 - 4.30\nSat 9.30 - 1.00\nSun CLOSED\n",
    "lat": -36.3934054,
    "lng": 145.3609961},
    {
    "id": 621,
    "name": "Salvos Thrift Shop",
    "address": "3 Mill Street Mooroopna",
    "opentime": "Mon - Fri 10am-4pm\nSat 10.30am-12.30pm\n",
    "lat": -36.393913,
    "lng": 145.360651},
    {
    "id": 622,
    "name": "Vinnies Mooroopna",
    "address": "2 Northgate Street, Mooroopna VIC 3629",
    "opentime": "Mon - Fri 9:30 AM - 4:30 PM\nSat 9:30 AM - 12:00 PM\nSun Closed\n",
    "lat": -36.3940659,
    "lng": 145.3578749},
    {
    "id": 623,
    "name": "Revamp (used stuff)",
    "address": "129-131 Fryers St, Shepparton VIC 3630",
    "opentime": "Mon - Fri 9.30am-4pm\nSat 10am-1pm\nSun Closed\n",
    "lat": -36.379258,
    "lng": 145.4030519},
    {
    "id": 624,
    "name": "Scott's OP Shop",
    "address": "Corio St Shepparton",
    "opentime": "Mon 10 to 4\nSat 10am - 12 pm\n",
    "lat": -36.3770725,
    "lng": 145.4042195},
    {
    "id": 625,
    "name": "Hospice Opportunity Shop",
    "address": "141-145 Fryers St, Shepparton VIC 3630",
    "opentime": "Unknown\n",
    "lat": -36.3793028,
    "lng": 145.4033858},
    {
    "id": 626,
    "name": "Shepparton Salvos",
    "address": "25a & 25b St Georges Road, Shepparton VIC 3630",
    "opentime": "Mon - Fri 9.00-5.00\nSat 10.00-2.00\n",
    "lat": -36.3835097,
    "lng": 145.4081146},
    {
    "id": 627,
    "name": "Vinnies Shepparton",
    "address": "274 Maude street, Shepparton VIC 3630",
    "opentime": "Mon - Sat 9:00 AM - 5:00 PM\nSun 9:00 AM - 5:00 \n",
    "lat": -36.3828605,
    "lng": 145.400012},
    {
    "id": 628,
    "name": "Vinnies Numurkah",
    "address": "98 Melville Street, Numurkah VIC 3636",
    "opentime": "Mon - Fri 10:00 AM - 4:00 PM\nSat 9:30 AM - 12:00 PM\nSun Closed\n",
    "lat": -36.091815600000004,
    "lng": 145.44208659999998},
    {
    "id": 629,
    "name": "Numurkah Red Cross",
    "address": "27 Quinn Street, Numurkah VIC 3636",
    "opentime": "Mon - Tue Closed\nWed 10:00am - 12:30pm\nThu - Fri 10:00am - 4:00pm\nSat 10:00am - 12:00pm\nSun Closed\n",
    "lat": -36.0905276,
    "lng": 145.4414858},
    {
    "id": 630,
    "name": "Vinnies Cobram",
    "address": "29 Main Street, Cobram VIC 3644",
    "opentime": "Mon - Fri 9:00 AM - 4:00 PM\nSat 9:00 AM - 12:00 PM\nSun Closed\n",
    "lat": -35.921217600000006,
    "lng": 145.6499466},
    {
    "id": 631,
    "name": "Cobram Red Cross",
    "address": "3A Hay & William St\tCobram VIC 3644",
    "opentime": "Mon - Fri 9:30am - 3:00pm\n",
    "lat": -35.918437899999994,
    "lng": 145.65157680000002},
    {
    "id": 632,
    "name": "Cobram Gateway",
    "address": "96 Broadway St, Cobram VIC 3644",
    "opentime": "8.30am - 4.30pm (Mon - Fri) and 9am - 1pm (Sat)\n",
    "lat": -35.917457,
    "lng": 145.6412432},
    {
    "id": 633,
    "name": "Salvos Broadford",
    "address": "27 Powlett St, Broadford",
    "opentime": "Mon closed\nTue - Fri 9a - 4p\nSat 10a - 1p \n",
    "lat": -37.2034951,
    "lng": 145.0472655},
    {
    "id": 634,
    "name": "Salvation Army Thrift Shop",
    "address": "8 - 10 Victoria Street, Seymour",
    "opentime": "Mon - Fri 9:30am - 3:30pm\nSat - Sun Closed\n",
    "lat": -37.026332000000004,
    "lng": 145.1420385},
    {
    "id": 635,
    "name": "Go Again op shop",
    "address": "Near the library, Anzac Avenue, Seymour VIC 3660",
    "opentime": "Mon - Fri 10am - 4pm\nSat 10am - 1pm\n",
    "lat": -37.030149,
    "lng": 145.146478},
    {
    "id": 636,
    "name": "Vinnies Seymour",
    "address": "12 Wallis Street, Seymour VIC 3660",
    "opentime": "Mon - Thu 9:00 AM - 4:30 PM\nFri 9:00 AM -4.30 PM\nSat 9:30 AM - 1:30 PM\n",
    "lat": -37.024443100000006,
    "lng": 145.1349832},
    {
    "id": 637,
    "name": "vinnies",
    "address": "Victoria St, Seymour Victoria",
    "opentime": "Mon - Fri 10 - 3.30\nSat - Sun closed\n",
    "lat": -37.0257346,
    "lng": 145.14162130000003},
    {
    "id": 638,
    "name": "Violet Town Community Op Shop",
    "address": "43 Cowslip Street, Violet town, Victoria 3669",
    "opentime": "Thu - Sun 10am - 3pm\n",
    "lat": -36.6367156,
    "lng": 145.71679609999998},
    {
    "id": 639,
    "name": "Benella Red Cross",
    "address": "59 Carrier St, Benalla VIC 3672",
    "opentime": "Mon - Fri 10:00am - 4:30pm\nSat 9:00am - 12:00pm\n",
    "lat": -36.550671799999996,
    "lng": 145.9859794},
    {
    "id": 640,
    "name": "Vinnies Benalla",
    "address": "41 Nunn Street, Benalla VIC 3672",
    "opentime": "Mon - Fri 9:00 AM - 5:00 PM\nSat 9:00 AM - 12:00 PM\nSun Closed\n",
    "lat": -36.549871,
    "lng": 145.9829091},
    {
    "id": 641,
    "name": "Vinnies Wangaratta",
    "address": "38 Rowan Street, Wangaratta VIC 3677",
    "opentime": "Mon - Fri 9:00 AM - 5:00 PM\nSat 9:00 AM - 12:00 PM\nSun Closed\n",
    "lat": -36.352424299999996,
    "lng": 146.3217044},
    {
    "id": 642,
    "name": "Lutheran Op Shop",
    "address": "7 Orwell St Wangaratta Vic 3677",
    "opentime": "Unknown\n",
    "lat": -36.3510485,
    "lng": 146.30823909999998},
    {
    "id": 643,
    "name": "Wangaratta Red Cross",
    "address": "70 Murphy Street Wangaratta VIC 3677",
    "opentime": "Mon - Thu 10:30am - 4:30am \nFri 10:00 - 1:00pm\n",
    "lat": -36.3551825,
    "lng": 146.3273053},
    {
    "id": 644,
    "name": "Uniting Church Op Shop",
    "address": "39 Vincent Rd Wangaratta Vic 3677",
    "opentime": "Mon - Fri 10am - 4pm\nSat 9am - 12pm\nSun Closed\n",
    "lat": -36.3657068,
    "lng": 146.3173326},
    {
    "id": 645,
    "name": "Wangaratta Salvos",
    "address": "118 - 120 Murphy Street, Wangaratta VIC 3677",
    "opentime": "Mon - Fri 9.00-5.00\nSat 9.00-1.00\n",
    "lat": -36.354305100000005,
    "lng": 146.328584},
    {
    "id": 646,
    "name": "RSPCA",
    "address": "5-7 Wills Street, Wangaratta",
    "opentime": "Unknown\n",
    "lat": -36.3658855,
    "lng": 146.31684909999998},
    {
    "id": 647,
    "name": "Chiltern Op- Shop",
    "address": "66 Conness Street Chiltern, Victoria",
    "opentime": "Mon - Fri 10:00 - 3:00\nSat - Sun 10:00 - 2:00\n",
    "lat": -36.151375,
    "lng": 146.609679},
    {
    "id": 648,
    "name": "Emmanuel Meeting Place Community Shop ",
    "address": "39 Emerald Avenue, Wodonga 3690 Victoria",
    "opentime": "Mon - Fri 10.30 to 2.30\nSat - Sun Closed\n",
    "lat": -36.125116,
    "lng": 146.860279},
    {
    "id": 649,
    "name": "MS Wodonga",
    "address": "156 High Street Wodonga Victoria",
    "opentime": "Mon - Fri 9am - 5pm\nSat 9am - 2pm\n",
    "lat": -36.1211755,
    "lng": 146.8883658},
    {
    "id": 650,
    "name": "Lifeline",
    "address": "61 High St Wodonga",
    "opentime": "Mon - Fri 9:30 - 4:30\nSat 10-1\nSun Closed\n",
    "lat": -36.1177137,
    "lng": 146.8894974},
    {
    "id": 651,
    "name": "Savers Corner",
    "address": "3 Ethel Lane Wodonga",
    "opentime": "Mon - Wed closed\nThu - Fri 10am - 3pm\nSat - Sun closed\n",
    "lat": -36.1238291,
    "lng": 146.8914461},
    {
    "id": 652,
    "name": "Wodonga Red Cross",
    "address": "164 High Street Wodonga\tVIC 3690",
    "opentime": "Mon - Fri 9:00am - 5:00pm\nSat 9:00am - 1:00pm\n",
    "lat": -36.1214735,
    "lng": 146.8883619},
    {
    "id": 653,
    "name": "Wodonga Salvos",
    "address": "153 Melbourne Road, Wodonga VIC 3690",
    "opentime": "Mon - Fri 9.00-5.30\nSat 9.00-1.00\n",
    "lat": -36.11918,
    "lng": 146.8746011},
    {
    "id": 654,
    "name": "AWH Wodonga Op Shop",
    "address": "43 High Street, Wodonga, Vic 3690",
    "opentime": "Mon - Fri 9.00 to 4.00\nSat 9.00 to 1.00pm \nSun Closed\n",
    "lat": -36.115637,
    "lng": 146.890633},
    {
    "id": 655,
    "name": "Vinnies Wodonga",
    "address": "74 High Street, Wodonga VIC 3690",
    "opentime": "Mon - Fri 9:00 AM - 5:00 PM\nSat 9:00 AM - 1:00 PM\n",
    "lat": -36.1180487,
    "lng": 146.88999919999998},
    {
    "id": 656,
    "name": "St Stephen's Op Shop",
    "address": "Cnr Nilmar Ave and Beechworth Rd. Wodonga 3690",
    "opentime": "Mon 10- 4\nTue - Fri 10-4\nSat 9:30-12\nSun Closed\n",
    "lat": -36.1255063,
    "lng": 146.8879896},
    {
    "id": 657,
    "name": "Yea Op Shop - St Luke's Anglican Church Op Shop Yea",
    "address": "78 High Street, Yea, 3717 Victoria",
    "opentime": "Mon Closed\nTue - Fri 10.00am - 4.00pm\nSat - Sun 11.00am - 2.00pm\n",
    "lat": -37.211600700000005,
    "lng": 145.4227709},
    {
    "id": 658,
    "name": "Vinnies Mansfield",
    "address": "8 Baldry Street, Mansfield VIC 3722",
    "opentime": "Mon - Fri 9:00 AM - 5:00 PM\nSat 10:00 AM - 2:00 PM\nSun Closed\n",
    "lat": -37.0516857,
    "lng": 146.0917017},
    {
    "id": 659,
    "name": "Yarrawonga Salvos",
    "address": "1a/59-63 Belmore Street, Yarrawonga VIC 3730",
    "opentime": "Mon - Fri 9.30-5.30\nSat 9.00-1.00\n",
    "lat": -36.0116204,
    "lng": 146.0040111},
    {
    "id": 660,
    "name": "Vinnies Yarrawonga",
    "address": "139-141 Belmore Street, Yarrawonga VIC 3730",
    "opentime": "Mon - Fri 9:00 AM - 5:00 PM\nSat 9:00 AM - 12:00 PM\nSun Closed\n",
    "lat": -36.013959,
    "lng": 146.0041417},
    {
    "id": 661,
    "name": "Yarrawonga Community Opportunity Shop",
    "address": "51-67 Benalla Road, Yarrawonga",
    "opentime": "Mon - Fri 9.30-4.30\nSat 9.3012.30\nSun Closed\n",
    "lat": -36.02152529999999,
    "lng": 145.9991549},
    {
    "id": 662,
    "name": "MYRT' Op-Shop",
    "address": "7-9 Clyde Street, Myrtleford, Vic, 3737",
    "opentime": "Mon - Thu 10:00am - 4:00pm\nFri 10:00am - 6:00pm\nSat - Sun 10:00am - 2:00pm\n",
    "lat": -36.5600508,
    "lng": 146.7250524},
    {
    "id": 663,
    "name": "Bright Hospital Op Shop",
    "address": "Ireland Street, Bright",
    "opentime": "Mon - Fri 9:30am - 4pm\nSat 9:30am - 3pm\nSun Closed\n",
    "lat": -36.7293204,
    "lng": 146.96109009999998},
    {
    "id": 664,
    "name": "Salvo's Thrift Store",
    "address": "35 Ford Street, Beechworth",
    "opentime": "Mon - Sat 10-4\nSun not open\n",
    "lat": -36.360488399999994,
    "lng": 146.68534419999997},
    {
    "id": 665,
    "name": "Our Community Op Shop",
    "address": "12 Camp Street, Beechworth 3747",
    "opentime": "Mon - Fri 10am-4pm\nSat 10am-2pm\nSun closed\n",
    "lat": -36.3600292,
    "lng": 146.68797619999998},
    {
    "id": 666,
    "name": "Wallan Uniting Church",
    "address": "Cnr Watson and Wellington Street, Wallan VIC",
    "opentime": "Mon - Thu closed\nFri 10-3\nSat 10-12\nSun closed\n",
    "lat": -37.4161852,
    "lng": 144.9775237},
    {
    "id": 667,
    "name": "Wallan Salvos",
    "address": "61 High Street, Wallan VIC 3756",
    "opentime": "Mon - Fri 9.30-5.30\nSat 9.00-1.00\n",
    "lat": -37.4141493,
    "lng": 144.97869519999998},
    {
    "id": 668,
    "name": "Christ Church Whittlesea Op Shop",
    "address": "7 Laurel St Whittlesea 3757 ",
    "opentime": "Mon 10am - 4pm\nTue 10 am - 4pm\nWed - Fri 10am - 4pm\nSat 9.30am - 12.30pm\nSun Closed\n",
    "lat": -37.5145398,
    "lng": 145.1155634},
    {
    "id": 669,
    "name": "Whittlesea Opportunity Shop - Whittlesea",
    "address": "7 Laurel St, Whittlesea VIC",
    "opentime": "Mon-Fri 10:00-4:00\nSat 9;30-12:30\n",
    "lat": -37.5145398,
    "lng": 145.1155634},
    {
    "id": 670,
    "name": "Kinglake Op Shop",
    "address": "Shop 1A Glenburn Rd Kinglake",
    "opentime": "Mon - Tue Closed\nWed - Thu 10am-4pm\nFri 11am-4pm\nSat 11am-2pm\nSun CLOSED\n",
    "lat": -37.5302075,
    "lng": 145.3408131},
    {
    "id": 671,
    "name": "Christ Church op shop",
    "address": "Corner of Church St and Union St, Kilmore 3764",
    "opentime": "Mon - Thu Closed\nFri 10-4\nSat 10-12\nSun Closed\n",
    "lat": -37.291788399999994,
    "lng": 144.94824309999998},
    {
    "id": 672,
    "name": "Kilmore and District Hospital Opp Shop",
    "address": "40 Albert St Kilmore 3674",
    "opentime": "Mon - Wed Closed\nThu - Fri 9-4\nSat 9-12\nSun Closed\n",
    "lat": -37.292751700000004,
    "lng": 144.954365},
    {
    "id": 673,
    "name": "Combined Churches Op Shop - Yarra Glen",
    "address": "33 Bell Street, Yarra Glen VIC",
    "opentime": "Mon - Fri 10 - 4 pm\nSat 10 - 1 pm\nSun Closed\n",
    "lat": -37.657765000000005,
    "lng": 145.374184},
    {
    "id": 674,
    "name": "Healesville East End Op Shop",
    "address": "309 Maroondah Hwy Healesville",
    "opentime": "Mon - Fri 11:00 - 4:30 pm\nSat 11:00 - 3:00 pm\nSun Every second Sunday 11:00 - 3:00 pm\n",
    "lat": -37.650945,
    "lng": 145.522292},
    {
    "id": 675,
    "name": "Cockatoo Opp Shop",
    "address": "Mc Bride Street Cockatoo 3781",
    "opentime": "Mon 9 am to  4pm\nTue - Fri 9am to 4pm\nSat 9am to 12 noon\n",
    "lat": -37.9357468,
    "lng": 145.49126619999998},
    {
    "id": 676,
    "name": "Nell Mitchell",
    "address": "Bailey Road, Cockatoo",
    "opentime": "Mon - Fri 9am - 4 pm\nSat 9am - nooon\n",
    "lat": -37.935658600000004,
    "lng": 145.485746},
    {
    "id": 677,
    "name": "Fernlea Shop of Opportunities",
    "address": "15 Kilvington drive Emerald",
    "opentime": "Mon - Fri 9.00am till 4.30pm\nSat 10.00am till 2.00pm\n",
    "lat": -37.9338011,
    "lng": 145.4410826},
    {
    "id": 678,
    "name": "Salvos ",
    "address": "1/51 main rd Monbulk ",
    "opentime": "Mon - Sat 9am-5pm\n",
    "lat": -37.8746624,
    "lng": 145.40756100000002},
    {
    "id": 679,
    "name": "Monbulk Primary School Op Shop - Monbulk",
    "address": "26 Main Street, Monbulk VIC",
    "opentime": "Mon-Fri 9:00-4:00\nSat closed\n",
    "lat": -37.878,
    "lng": 145.411},
    {
    "id": 680,
    "name": "MS Community Shop - MONBULK",
    "address": "88 MAIN STREET, MONBULK",
    "opentime": "Mon - Fri 9:00am - 4:00pm\nSat  9:00am - 4:00pm\n",
    "lat": -37.874716799999995,
    "lng": 145.4070931},
    {
    "id": 681,
    "name": "Monbulk Community Care Network - Monbulk",
    "address": "18 Main Street, Monbulk VIC",
    "opentime": "Mon - Fri 10:00 - 4:30\nSat 10:00 - 1:00\n",
    "lat": -37.878,
    "lng": 145.411},
    {
    "id": 682,
    "name": "Treasure Corner Op Shop - Mt Evelyn",
    "address": "39 Wray Crescent Mt Evelyn VIC 3796",
    "opentime": "Mon - Fri 9:30am - 4:30pm\nSat 9:30am - 12:30pm\n",
    "lat": -37.785574,
    "lng": 145.378474},
    {
    "id": 683,
    "name": "Benwerren Boutique",
    "address": "2455 Warburton Highway Yarra Junction 3797",
    "opentime": "Tue - Thu 9.00 -4.00pm\nFri 9.00am-4.00pm\nSat 10.00am-2.00pm\n",
    "lat": -37.781329,
    "lng": 145.6135041},
    {
    "id": 684,
    "name": "Vinnies Warburton",
    "address": "3381 Warburton Highway, Warburton VIC 3799",
    "opentime": "Mon - Fri 10:00 AM - 4:00 PM\nSat - Sun 10:00 AM - 4:30 PM\n",
    "lat": -37.753888399999994,
    "lng": 145.6877254},
    {
    "id": 685,
    "name": "The Endeavour Opportunity Shop - Endeavour Hills",
    "address": "2 Raymond Mcmahon Blv, Endeavour Hills VIC",
    "opentime": "Mon - Fri 10am-4:30pm\nSat 9am-12pm\nSun Closed\n",
    "lat": -37.978053700000004,
    "lng": 145.26144519999997},
    {
    "id": 686,
    "name": "Endeavour Opportunity Shop - Endeavour Hills",
    "address": "2 Hanna Drv, Endeavour Hills VIC",
    "opentime": "Unknown\n",
    "lat": -37.9759311,
    "lng": 145.27095269999998},
    {
    "id": 687,
    "name": "Narre Warren Salvos",
    "address": "3 Webb Street, Narre Warren VIC 3805",
    "opentime": "Mon - Fri 9.00-5.30\nSat 9.00-5.00\nSun 12.00-4.00 for donations only\n",
    "lat": -38.0265076,
    "lng": 145.30298369999997},
    {
    "id": 688,
    "name": "Savers Westfield Fountain Gate",
    "address": "Homemaker Centre/Office Precinct, 352 Princes Hwy Fountain Gate, Victoria 3805",
    "opentime": "Mon - Wed 9am - 7pm\nThu - Fri 9am - 9pm\nSat 9am - 6pm\nSun 10am - 6pm\n",
    "lat": -38.0175584,
    "lng": 145.3038409},
    {
    "id": 689,
    "name": "Warren Op Shop",
    "address": "4a Malcolm Court Narre Warren",
    "opentime": "Mon - Fri 9.30am - 4pm\nSat 9am - 12pm\nSun Closed\n",
    "lat": -38.026973999999996,
    "lng": 145.3056415},
    {
    "id": 690,
    "name": "Basic Treasures Preloved Store",
    "address": "4/54-60 Vesper Drive Narre Warren",
    "opentime": "Mon Monday 10am-4pm\nTue Tuesday 10am-4pm\nWed Wednesday 10am-4pm\nThu Thursday 10am-6pm\nFri Friday 10am-4pm\nSat Saturday 10am-4pm\nSun Sunday 10am-4pm\n",
    "lat": -38.019675,
    "lng": 145.292911},
    {
    "id": 691,
    "name": "Berwick Red Cross",
    "address": "20 Adams Lane\tBerwick VIC 3806",
    "opentime": "Mon - Fri 9:30am - 5:00pm\nSat 9:30am - 12:30pm\n",
    "lat": -38.031504999999996,
    "lng": 145.3452645},
    {
    "id": 692,
    "name": "Berwick Opportunity Shop - Berwick",
    "address": "3a Clyde Rd, Berwick VIC",
    "opentime": "Unknown\n",
    "lat": -38.0315016,
    "lng": 145.3438597},
    {
    "id": 693,
    "name": "the hOPe SHOP",
    "address": "40 Intrepid Street Berwick, VIC 3806",
    "opentime": "Thu - Fri 10am - 4pm\nSat 9am - 1pm\n",
    "lat": -38.0369453,
    "lng": 145.3374642},
    {
    "id": 694,
    "name": "Berwick Opportunity Shop Inc",
    "address": "3A Clyde Road BERWICK 3806",
    "opentime": "Mon - Fri 9-4\nSat 9-12\n",
    "lat": -38.0315016,
    "lng": 145.3438597},
    {
    "id": 695,
    "name": "Berwick Red Cross Shop",
    "address": "2 Adams Lane, Berwick ",
    "opentime": "Unknown\n",
    "lat": -38.0317045,
    "lng": 145.3438656},
    {
    "id": 696,
    "name": "Beaconsfield Salvos",
    "address": "Shop 2/7 Beaconsfield Emerald H'way , Beaconsfield VIC 3087",
    "opentime": "Mon - Fri 9.00-5.30\nSat 9.00-5.00\n",
    "lat": -38.009826000000004,
    "lng": 145.402908},
    {
    "id": 697,
    "name": "St John's Op Shop - Upper Beaconsfield",
    "address": "Cnr Beaconsfield-Emerald & St George's Road, Upper Beaconsfield VIC",
    "opentime": "Thu 9-3\nFri 9-1\n",
    "lat": -38.0040951,
    "lng": 145.4090236},
    {
    "id": 698,
    "name": "Community Care Op Shop, Pakenham",
    "address": "4-5 Treloar Ln, Pakenham",
    "opentime": "Unknown\n",
    "lat": -38.0775541,
    "lng": 145.4826607},
    {
    "id": 699,
    "name": "Pakenham Salvos",
    "address": "6 - 8 Michael Street , Pakenham VIC 3810",
    "opentime": "Mon - Fri 9.00-5.30\nSat 9.00-5.00\n",
    "lat": -38.0616976,
    "lng": 145.4585175},
    {
    "id": 700,
    "name": "BSL - Pakenham",
    "address": "166a Station Street, Pakenham",
    "opentime": "Mon - Fri 9:30am - 5pm\nSat 9 am - 1 pm\n",
    "lat": -38.0793639,
    "lng": 145.4847427},
    {
    "id": 701,
    "name": "Vinnies Pakenham",
    "address": "2/70 Main Street, Pakenham VIC 3810",
    "opentime": "Mon - Sat 9:00 AM - 5:00 PM\n",
    "lat": -38.076431,
    "lng": 145.4808735},
    {
    "id": 702,
    "name": "Purton Place Pre Loved Shop is ",
    "address": "20 Purton rd Pakenham Gate No: 1",
    "opentime": "Mon Monday 9.30am- 3pm\nTue Tuesday 9.30am - 3pm\nWed Wednesday 9.30am - 3pm\nThu Thursday 9.30am - 3pm\nFri Friday 9.30am - 3pm\nSat Saturday 9.30am - 5pm\n",
    "lat": -38.059824600000006,
    "lng": 145.46455600000002},
    {
    "id": 703,
    "name": "Garfield Community Shop",
    "address": "71 Nar Nar Goon- Longwarry RD Garfield",
    "opentime": "Mon - Fri 9.30am-4.30pm\nSat 9.30am-12.30pm\nSun closed\n",
    "lat": -38.091992,
    "lng": 145.67568899999998},
    {
    "id": 704,
    "name": "Bunyip Community Op Shop",
    "address": "7 Main St., Bunyip",
    "opentime": "Mon - Fri 9.30am to 4.30pm\nSat 9.30am to 12.30pm\n",
    "lat": -38.0980265,
    "lng": 145.71842030000002},
    {
    "id": 705,
    "name": "Drouin Salvos",
    "address": "131-133 Princes Way, Drouin VIC 3818",
    "opentime": "Mon - Sat 9.00-5.00\n",
    "lat": -38.134825,
    "lng": 145.854989},
    {
    "id": 706,
    "name": "Drouin Auxiliary Op Shop",
    "address": "121 Princes Way, Drouin",
    "opentime": "Unknown\n",
    "lat": -38.134900200000004,
    "lng": 145.8553241},
    {
    "id": 707,
    "name": "Drouin Anglican Church OpShop Warehouse",
    "address": "65 Roberts Court Drouin",
    "opentime": "Tue 8.30AM-12PM\nThu 8.30AM-12PM\nSat 8.30AM-12.30PM- 3RD SAT OF MON\nSun CLOSED\n",
    "lat": -38.1203338,
    "lng": 145.83828269999998},
    {
    "id": 708,
    "name": "Drouin Anglican Op Shop",
    "address": "Shop 3, 57 Commercial Place, Drouin",
    "opentime": "Mon - Tue 9AM-4PM\nWed 9AM- 4PM\nThu - Fri 9AM-4PM\nSat 9AM-12.30PM\nSun CLOSED\n",
    "lat": -38.134974,
    "lng": 145.85706499999998},
    {
    "id": 709,
    "name": "Mawarra Sorting Centre",
    "address": "14 June Crt Warragul",
    "opentime": "Mon - Wed 9.00am-3.30pm\nThu - Fri 9.00am-1.30pm\nSat Occasionally\n",
    "lat": -38.1633286,
    "lng": 145.9507352},
    {
    "id": 710,
    "name": "Salvation Army Thrift Shop",
    "address": "57a Smith Street Warragul",
    "opentime": "Unknown\n",
    "lat": -38.16012389999999,
    "lng": 145.93191530000001},
    {
    "id": 711,
    "name": "Been Around Before Store",
    "address": "3 Victoria Street, Warragul, 3820",
    "opentime": "Mon - Fri 10am-4.30pm\nSat 9am-12.30pm\n",
    "lat": -38.162989,
    "lng": 145.930749},
    {
    "id": 712,
    "name": "Vinnies Warragul",
    "address": "14 Gladstone Street, Warragul VIC 3820",
    "opentime": "Mon - Fri 9:00 AM - 5:00 PM\nSat 9:30 AM - 5:00 PM\n",
    "lat": -38.163643799999996,
    "lng": 145.936128},
    {
    "id": 713,
    "name": "Mawarra",
    "address": "40 Palmerston St, Warragul",
    "opentime": "Unknown\n",
    "lat": -38.162149799999995,
    "lng": 145.9329993},
    {
    "id": 714,
    "name": "Lions on Mane",
    "address": "446 Yarragon-Leongatha Road, Yarragon South Vic",
    "opentime": "Mon - Tue Closed\nWed - Sun 10.00am to 4.00pm\n",
    "lat": -38.2329175,
    "lng": 146.0460986},
    {
    "id": 715,
    "name": "Lions on Mane",
    "address": "107 Princess Highway, Yarragon, Victoria",
    "opentime": "Mon - Tue Closed\nWed - Sun 10.00am to 4.00pm\n",
    "lat": -38.2040304,
    "lng": 146.06344109999998},
    {
    "id": 716,
    "name": "St Mary's Opp Shop",
    "address": "3 Church Street, Trafalgar, Victoria",
    "opentime": "Mon - Tue Closed\nWed - Fri 10am - 4pm\nSat 10am - 12pm\nSun Closed\n",
    "lat": -38.2115114,
    "lng": 146.1558016},
    {
    "id": 717,
    "name": "Trafalgar &amp;amp; District Community Op Shop",
    "address": "8 Contingent St, Trafalgar",
    "opentime": "Mon - Fri 10am - 4.30pm.\nSat 9.30am - 1.00pm.\n",
    "lat": -38.2084135,
    "lng": 146.1552896},
    {
    "id": 718,
    "name": "Salvation Army Thrift Store",
    "address": "3A Moore St Moe",
    "opentime": "Mon - Fri 10am - 5pm\nSat 10am - 12pm\n",
    "lat": -38.1752546,
    "lng": 146.261387},
    {
    "id": 719,
    "name": "GEST Op Shop",
    "address": "32 Kirk Street Moe",
    "opentime": "Mon - Fri  9 am-4:30 pm\n",
    "lat": -38.174187700000004,
    "lng": 146.2632066},
    {
    "id": 720,
    "name": "Lifeline - Moe",
    "address": "19 Fowler St, Moe",
    "opentime": "Unknown\n",
    "lat": -38.1783699,
    "lng": 146.2615378},
    {
    "id": 721,
    "name": "RSPCA",
    "address": "37 Lloyd Street, Moe",
    "opentime": "Mon - Fri 10:00 am - 4:00 pm\nSat 10:00 am - 1:00 pm\n",
    "lat": -38.177399900000005,
    "lng": 146.2625191},
    {
    "id": 722,
    "name": "Angels' Treasures",
    "address": "10 Fowler Street Moe, Victoria 3825",
    "opentime": "Mon - Fri 10.00am to 4.00pm\nSat 9.00am to 12pm\n",
    "lat": -38.177882399999994,
    "lng": 146.2609512},
    {
    "id": 723,
    "name": "Vinnies Moe",
    "address": "24 Fowler Street, Moe VIC 3825",
    "opentime": "Mon - Fri 9:00 AM - 4:00 PM\nSat 9:00 AM - 1:00 PM\nSun Closed\n",
    "lat": -38.17835170000001,
    "lng": 146.2610071},
    {
    "id": 724,
    "name": "UCA Yallourn Parish thrift shop",
    "address": "42 - 44 Rutherglen Road Newborough Vic 3825",
    "opentime": "Mon - Fri 10 - 4\nSat 9 - 12\nSun closed\n",
    "lat": -38.1852345,
    "lng": 146.2908396},
    {
    "id": 725,
    "name": "One In Five Newborough",
    "address": "44 Monash Road, Newborough",
    "opentime": "Mon - Fri 9.30 - 4pm\nSat 9.00 - 12pm\nSun Closed\n",
    "lat": -38.1850601,
    "lng": 146.29090549999998},
    {
    "id": 726,
    "name": "The Anglian op Shop",
    "address": "46 Rutherglen road Newborough",
    "opentime": "Mon - Fri 10am to 4pm\nSat - Sun closed\n",
    "lat": -38.1852345,
    "lng": 146.2908396},
    {
    "id": 727,
    "name": "Yallourn North Op Shop",
    "address": "Reserve St, Yallourn North",
    "opentime": "Unknown\n",
    "lat": -38.1629707,
    "lng": 146.3620893},
    {
    "id": 728,
    "name": "Fossick &amp;amp; Find",
    "address": "72 George St, Morwell VIC 3840",
    "opentime": "Mon - Fri 9am - 5pm\nSat - Sun Closed\n",
    "lat": -38.23871079999999,
    "lng": 146.39700990000003},
    {
    "id": 729,
    "name": "Vinnies Morwell",
    "address": "15 Tarwin Street, Morwell VIC 3840",
    "opentime": "Mon - Fri 9:00 AM - 5:00 PM\nSat 9:00 AM - 12:00 PM\nSun Closed\n",
    "lat": -38.238116,
    "lng": 146.397887},
    {
    "id": 730,
    "name": "Morwell Salvos",
    "address": "160 Commercial Road, Morwell VIC 3840",
    "opentime": "Mon - Fri 9.00-5.00\nSat 9.00-1.00\n",
    "lat": -38.2370938,
    "lng": 146.3957141},
    {
    "id": 731,
    "name": "Lifeline - Morwell",
    "address": "2-8 Fleming St, Morwell",
    "opentime": "Unknown\n",
    "lat": -38.2340765,
    "lng": 146.3992869},
    {
    "id": 732,
    "name": "Churchill Lifeline",
    "address": "Shop 11a, Hazelwood Village CHURCHILL 3842",
    "opentime": "Unknown\n",
    "lat": -38.321998799999996,
    "lng": 146.4160017},
    {
    "id": 733,
    "name": "Traralgon Salvos",
    "address": "93A Argyle Street, Traralgon VIC 3844",
    "opentime": "Mon - Fri 9.00-5.00\nSat 9.00-1.00\n",
    "lat": -38.1931262,
    "lng": 146.54935559999998},
    {
    "id": 734,
    "name": "Vinnies Traralgon",
    "address": "70 Argle Street, Traralgon",
    "opentime": "Mon - Fri 9:00 AM - 5:00 PM\nSat 9:00 AM - 2:00 PM\nSun 10.00 AM - 4.00 PM\n",
    "lat": -38.192865399999995,
    "lng": 146.54666519999998},
    {
    "id": 735,
    "name": "C2A Cooinda Op Shop Traralgon",
    "address": "15 Seymour St Traralgon, Victoria 3844 ",
    "opentime": "Mon - Fri 9.30am - 4pm\nSat 9.30am - 1pm\nSun CLOSED\n",
    "lat": -38.1965678,
    "lng": 146.5395807},
    {
    "id": 736,
    "name": "Traralgon Lifeline",
    "address": "60 Franklin Street TRARALGON 3844",
    "opentime": "Mon 12:00 noon-4:00pm\nTue - Fri 9:30am-4:00pm \nSat 10.00am - 1.00pm\nSun Closed\n",
    "lat": -38.196917600000006,
    "lng": 146.5381555},
    {
    "id": 737,
    "name": "Seek And You Will Find",
    "address": "43 Franklin Street Traralgon",
    "opentime": "Mon - Fri 10.00 am - 4.00pm\nSat 9.00 am-12.00 pm\nSun Closed\n",
    "lat": -38.19708749999999,
    "lng": 146.53760060000002},
    {
    "id": 738,
    "name": "Now Church Op Shop",
    "address": "80 Henry Street Traralgon",
    "opentime": "Wed 10am  until 4pm\nThu - Fri 10am until 4pm\n",
    "lat": -38.196986200000005,
    "lng": 146.5222631},
    {
    "id": 739,
    "name": "Traralgon Red Cross",
    "address": "71 Franklin Street Traralgon VIC 3844",
    "opentime": "Mon - Fri 9:30am - 5:00pm\n",
    "lat": -38.1966472,
    "lng": 146.5376622},
    {
    "id": 740,
    "name": "St Mark's Op Shop Rosedale",
    "address": "39 prince st Rosedale vic ",
    "opentime": "Mon - Fri 10-4\nSat 10-2\n",
    "lat": -38.151595,
    "lng": 146.787029},
    {
    "id": 741,
    "name": "LIFELINE Sale",
    "address": "260 York St Sale, Vic",
    "opentime": "Unknown\n",
    "lat": -38.10341409999999,
    "lng": 147.0682668},
    {
    "id": 742,
    "name": "Kilmany Uniting Care Opportunity Shop (Sale)",
    "address": "407 Raymond Street, Sale VIC 3850",
    "opentime": "Mon - Fri 9am to 4:30pm\nSat 9am to 12:00pm\nSun A day of rest - closed!\n",
    "lat": -38.104659000000005,
    "lng": 147.064988},
    {
    "id": 743,
    "name": "Vinnies Sale",
    "address": "192-194 York Street, Sale VIC 3850",
    "opentime": "Mon - Fri 9:00 AM - 5:00 PM\nSat 9:00 AM - 1:00 PM\n",
    "lat": -38.1063234,
    "lng": 147.0682509},
    {
    "id": 744,
    "name": "Sale Red Cross",
    "address": "251 Raymond Street\tSale VIC 3850",
    "opentime": "Mon - Fri 9:00am - 4:30pm\nSat 9:00am - 12:30pm\n",
    "lat": -38.1079903,
    "lng": 147.06534069999998},
    {
    "id": 745,
    "name": "Sally's Boutique",
    "address": "139-143 Cunningham Street Sale",
    "opentime": "Mon - Fri 9:30-4\n",
    "lat": -38.1069878,
    "lng": 147.07028390000002},
    {
    "id": 746,
    "name": "Lions Op Shop",
    "address": "87 Macarthur Street Sale",
    "opentime": "Unknown\n",
    "lat": -38.104972499999995,
    "lng": 147.0672947},
    {
    "id": 747,
    "name": "Vinnies Heyfield",
    "address": "47 Temple Street, Heyfield VIC 3858",
    "opentime": "Mon - Fri 9:00 AM - 4:00 PM\nSat 9:00 AM - 12:00 PM\nSun Closed\n",
    "lat": -37.983289899999995,
    "lng": 146.78517630000002},
    {
    "id": 748,
    "name": "Op Shop",
    "address": "55 Princes Hwy Stratford Vic",
    "opentime": "Unknown\n",
    "lat": -37.9667286,
    "lng": 147.0796395},
    {
    "id": 749,
    "name": "RSPCA",
    "address": "373 Main Street,Bairnsdale",
    "opentime": "Unknown\n",
    "lat": -37.8300999,
    "lng": 147.61435790000002},
    {
    "id": 750,
    "name": "Vinnies Bairnsdale",
    "address": "316 Main Street, Bairnsdale VIC 3875",
    "opentime": "Mon - Sat 9:00 AM - 5:00 PM\n",
    "lat": -37.82694420000001,
    "lng": 147.6248121},
    {
    "id": 751,
    "name": "Bairnsdale Red Cross",
    "address": "Old Uniting Church Hall Bairnsdale VIC 3875",
    "opentime": "Mon - Fri 9:30am - 4:00pm\n",
    "lat": -37.8085099,
    "lng": 147.6495803},
    {
    "id": 752,
    "name": "Uniting Church Friendship Shed and Op Shop",
    "address": "710 Lanes Road Lucknow 3875",
    "opentime": "Thu - Fri 10am - 4pm\nSat 9:30am - 12:30pm\n",
    "lat": -37.808946399999996,
    "lng": 147.6499351},
    {
    "id": 753,
    "name": "ADRA Opportunity Centre Bairnsdale",
    "address": "455 Princess Highway BAIRNSDALE VIC 3875",
    "opentime": "Sun 9:00-4:00\n",
    "lat": -37.833102600000004,
    "lng": 147.607885},
    {
    "id": 754,
    "name": "Ye Olde Oppe Shoppe, Bruthen",
    "address": "54 Main St, Bruthen 3885",
    "opentime": "Mon - Fri 9.30am - 3.30PM\nSat 9.30am - 3.30pm\n",
    "lat": -37.7082555,
    "lng": 147.832569},
    {
    "id": 755,
    "name": "Ye Olde Op Shop, Bruthen",
    "address": "48 Main Stree, Bruthen 3885",
    "opentime": "Mon 9.30 - 3.3.0\nTue - Sat 9.30 - 3.30\n",
    "lat": -37.708114200000004,
    "lng": 147.831981},
    {
    "id": 756,
    "name": "St Peter's Op Shop",
    "address": "1 Allan Drive VIC",
    "opentime": "Mon - Fri 10am - 3pm\nSat 10am - 12pm\nSun Closed\n",
    "lat": -37.5584476,
    "lng": 149.76028540000001},
    {
    "id": 757,
    "name": "St Peters Op Shop",
    "address": "Greer St, Mallacoota, Vic",
    "opentime": "Mon - Fri 10am - 3pm\nSat 10am - 12pm\nSun Closed\n",
    "lat": -37.55813679999999,
    "lng": 149.7585866},
    {
    "id": 758,
    "name": "St Thomas OP Shop",
    "address": "Cnr Warrandyte Road and North Road, Langwarrin",
    "opentime": "Mon Closed\nTue 11.00 -3.00\nWed - Fri 11.00-3.00\nSat 8.30-12.30\nSun Closed\n",
    "lat": -38.165387,
    "lng": 145.18811200000002},
    {
    "id": 759,
    "name": "St Thomas' Opportunity Shop - Langwarrin",
    "address": "Cnr Warrandyte & North Rds, Langwarrin VIC",
    "opentime": "Tue - Fri 12-3.30pm\n",
    "lat": -37.726,
    "lng": 145.216},
    {
    "id": 760,
    "name": "Vision Australia Opportunity Shop",
    "address": "Shop 24/49 Eramosa Road West Somerville",
    "opentime": "Mon - Fri 9am-4pm\n",
    "lat": -38.22426979999999,
    "lng": 145.1697931},
    {
    "id": 761,
    "name": "George Vowell Centre Opportunity Shop",
    "address": "Frankston-Hastings Rd, Somerville VIC",
    "opentime": "Unknown\n",
    "lat": -38.2357153,
    "lng": 145.2154644},
    {
    "id": 762,
    "name": "Somerville Salvos",
    "address": "Shop 32/ 17 Eramosa Road West, Somerville VIC 3912",
    "opentime": "Mon - Fri 9.00-5.30\nSat 9.00-5.00\n",
    "lat": -38.223792700000004,
    "lng": 145.1723136},
    {
    "id": 763,
    "name": "Hastings Salvos",
    "address": "21 High Street, Hastings  VIC 3915",
    "opentime": "Mon - Fri 9.00-5.00\nSat 10.00-2.00\n",
    "lat": -38.307969799999995,
    "lng": 145.19274040000002},
    {
    "id": 764,
    "name": "Vinnies Hastings",
    "address": "83 High Street, Hastings VIC 3915",
    "opentime": "Mon - Sat 9:00 AM - 5:00 PM\nSun 10:00 AM - 3:00 PM\n",
    "lat": -38.307990600000004,
    "lng": 145.1897423},
    {
    "id": 765,
    "name": "CarryOn Victoria Peninsula",
    "address": "2/61 Coolstore road Hastings Victoria",
    "opentime": "Mon - Fri 10-3\nSat only on special occasions \nSun closed\n",
    "lat": -38.303322200000004,
    "lng": 145.18513869999998},
    {
    "id": 766,
    "name": "Cowes Salvos",
    "address": "149 Thompson Avenue, Cowes VIC 3922",
    "opentime": "Mon - Fri 9.00-5.00\nSat 9.00-5.00\n",
    "lat": -38.455242600000005,
    "lng": 145.2392858},
    {
    "id": 767,
    "name": "Vinnies Cowes",
    "address": "1/144 Thompson Ave, Cowes VIC 3922",
    "opentime": "Mon - Fri 9:00 AM - 5:00 PM\nSat 10:00 AM - 4:00 PM (*summer hrs)\nSun Clo\n",
    "lat": -38.454638,
    "lng": 145.2387956},
    {
    "id": 768,
    "name": "Rotary Op Shop",
    "address": "5/134-138 Thompson Avenue, Cowes",
    "opentime": "Mon - Fri 10am - 3.30pm\nSat 10am - 1pm\nSun Closed\n",
    "lat": -38.454217,
    "lng": 145.2387124},
    {
    "id": 769,
    "name": "Balnarring Op Shop",
    "address": "1 Balnarring Road Balnarring",
    "opentime": "Mon Closed\nTue - Wed 10am - 2pm\nThu Closed\nFri 10am - 2pm\nSat 10am - 1pm\nSun Closed\n",
    "lat": -38.3729765,
    "lng": 145.12661830000002},
    {
    "id": 770,
    "name": "Kankama Opportunity Shop",
    "address": "16b Ranelagh Drv",
    "opentime": "Unknown\n",
    "lat": -38.184465,
    "lng": 145.08791200000002},
    {
    "id": 771,
    "name": "Corowa Court Opportunity Shop",
    "address": "32 Ranelagh Drive",
    "opentime": "Unknown\n",
    "lat": -38.1841028,
    "lng": 145.0883441},
    {
    "id": 772,
    "name": "Mount Eliza Salvos",
    "address": "Shop 1/87 Mount Eliza Way, Mt. Eliza Village Shopping, Mount Eliza VIC 3930",
    "opentime": "Mon - Fri 9.00-5.30\nSat 10.00-2.00\n",
    "lat": -38.184105100000004,
    "lng": 145.0894209},
    {
    "id": 773,
    "name": "Mornington Salvos",
    "address": "Unit 3/205 Tyabb Road, Mornington VIC 3931",
    "opentime": "Mon - Fri 9.00-5.30\nSat 9.00-5.00\n",
    "lat": -38.237935,
    "lng": 145.0656891},
    {
    "id": 774,
    "name": "Mornington Central Salvos",
    "address": "206 Main Street, Mornington Central VIC 3931",
    "opentime": "Mon - Fri 9.00-5.30\nSat 9.00-5.00\n",
    "lat": -38.221962299999994,
    "lng": 145.040617},
    {
    "id": 775,
    "name": "Peters Place Op Shop",
    "address": "3A Queen Street Mornington Victoria",
    "opentime": "Mon Mon-Fri. 9.30 am- 3.30pm\nSat Sat 9.30-12.30pm.\n",
    "lat": -38.2182804,
    "lng": 145.03667030000003},
    {
    "id": 776,
    "name": "Tru Opportunity Op Shop",
    "address": "8 Frank Street mornington 3931",
    "opentime": "Mon Closed\nTue - Fri 9.30am - 3.30pm\nSat 10am - 1pm\nSun Closed\n",
    "lat": -38.2325187,
    "lng": 145.04946719999998},
    {
    "id": 777,
    "name": "Mornington  park primary school opp shop",
    "address": "22 Robertson's drive Mornington ",
    "opentime": "Mon - Fri 9-4\nSat 9-12\n",
    "lat": -38.22540499999999,
    "lng": 145.055654},
    {
    "id": 778,
    "name": "Community Caring Inc Op Shop",
    "address": "6/175-179 Mornington-Tyabb Rd, Mornington, VIC",
    "opentime": "Mon - Fri 9am - 5pm\nSat 10am - 4pm\nSun CLOSED\n",
    "lat": -38.2370665,
    "lng": 145.062231},
    {
    "id": 779,
    "name": "Vinnies Mornington",
    "address": "184 Main Street, Mornington VIC 3931",
    "opentime": "Mon - Sat 9:00 AM - 5:00 PM\n",
    "lat": -38.22157370000001,
    "lng": 145.0402469},
    {
    "id": 780,
    "name": "RSPCA Oppurtunity Shop",
    "address": "139 Mornington-Tyabb Rd, Mornington 3931",
    "opentime": "Mon-Fri 9am-5pm\n Sat 9am-3pm\n",
    "lat": -38.2362648,
    "lng": 145.0585898},
    {
    "id": 781,
    "name": "Vinnies Mornington Tyabb",
    "address": "4/175-179 Mornington-Tyabb Road, Mornington Tyabb VIC 3931",
    "opentime": "Mon - Fri 9:00 AM - 5:00 PM\nSat 9:00 AM - 3:00 PM\nSun Closed\n",
    "lat": -38.2370665,
    "lng": 145.062231},
    {
    "id": 782,
    "name": "Peter's Place Op Shop - Mornington",
    "address": "3 Queen Street, Mornington VIC",
    "opentime": "Mon 9.30am to 3.30pm\nTue Closed\nWed - Fri 9.30am to 3.30pm\nSat 9.30am to 12.30pm\n",
    "lat": -38.218169200000006,
    "lng": 145.03682769999998},
    {
    "id": 783,
    "name": "Outlook Environmental",
    "address": "29 Racecourse Rd",
    "opentime": "9am-4pm 7 Days\n",
    "lat": -33.7725814,
    "lng": 150.6924129},
    {
    "id": 784,
    "name": "St Mark's Anglican Opportunity shop",
    "address": "cnr Point Neapen Rd & O'Donoghue St Dromana",
    "opentime": "Unknown\n",
    "lat": -38.3370239,
    "lng": 144.95575530000002},
    {
    "id": 785,
    "name": "Red Cross Shop",
    "address": "181 Point Nepean Rd, Dromana, 3936,Australia",
    "opentime": "Mon - Sat 9:00-4:30\n",
    "lat": -38.331949,
    "lng": 144.966815},
    {
    "id": 786,
    "name": "Lions Club of Dromana Opportunity Shop",
    "address": "25 Pier Street Dromana Vic 3936",
    "opentime": "Mon - Fri 10.00AM to 4.00PM\nSat 9.00AM to 2.00PM\nSun Closed\n",
    "lat": -38.333285100000005,
    "lng": 144.9662166},
    {
    "id": 787,
    "name": "Red Hill Op Shop",
    "address": "33 Mechanics Road Red Hill Vic 3937",
    "opentime": "Wed 10am-4pm\nFri 10am-4pm\nSat 10am-1pm\n",
    "lat": -38.3754277,
    "lng": 145.0264939},
    {
    "id": 788,
    "name": "Lions Club of Dromana Opportunity Shop",
    "address": "Shop 1 1401 Point Nepean Road ROSEBUD VIC 3939",
    "opentime": "Mon - Fri 10.00AM to 4.00PM\nSat 9.00AM to 2.00PM\n",
    "lat": -38.36007499999999,
    "lng": 144.89155300000002},
    {
    "id": 789,
    "name": "Rotary Rosebud Ladies Op Shop",
    "address": "2/1395 Pt Nepean Rd, Rosebud. Best site for entry is from the Rosebud Plaza car park.",
    "opentime": "Mon Monday 9.30am to 4pm\nTue Tuesday 9.30am to 4pm\nWed Wednesday 9.30am to 4pm\nThu Thursday 9.30am to 4pm\nFri Friday 9.30am to 4pm\nSat Saturday 10am to 1pm\nSun Closed\n",
    "lat": -38.3596786,
    "lng": 144.891582},
    {
    "id": 790,
    "name": "Rosebud Primary School Op Shop",
    "address": "Ninth Avenue, Rosebud, 3939",
    "opentime": "m-f : 9:30am-4pm\n",
    "lat": -38.3601922,
    "lng": 144.90391680000002},
    {
    "id": 791,
    "name": "Lions Club Op Shop",
    "address": "Shop 1-1401 (rear) Point Nepean Rd Rosebud",
    "opentime": "Mon - Fri 10.00AM to 4.00PM\nSat 9.00AM to 2.00PM\nSun Closed\n",
    "lat": -38.3552659,
    "lng": 144.9061231},
    {
    "id": 792,
    "name": "Rosebud Salvos",
    "address": "1247 Point Nepean Road, Rosebud VIC 3939",
    "opentime": "Mon - Fri 9.30-5.30\nSat 10.00-2.00\n",
    "lat": -38.358502,
    "lng": 144.89553999999998},
    {
    "id": 793,
    "name": "Rosebud Hospital and Aged Care Opportunity Shop",
    "address": "Shop 10 - 1283 Point Nepean Rd Rosebud",
    "opentime": "Unknown\n",
    "lat": -38.359253,
    "lng": 144.89477},
    {
    "id": 794,
    "name": "Vinnies Rosebud",
    "address": "1057 Point Nepean Road, Rosebud VIC 3939",
    "opentime": "Mon - Sat 9:00 AM - 5:00 PM\n",
    "lat": -38.3560604,
    "lng": 144.90455359999999},
    {
    "id": 795,
    "name": "Angel Op Shop Inc",
    "address": "Shop 2-1189 Point Nepean Rd Rosebud 3939",
    "opentime": "Mon - Fri 10am - 4pm\nSat 10am - 1pm\nSun Closed\n",
    "lat": -38.357512299999996,
    "lng": 144.89945580000003},
    {
    "id": 796,
    "name": "Uniting Church Opportunity Shop",
    "address": "Shop 5 Nepean Plaza VIC",
    "opentime": "Unknown\n",
    "lat": -38.3280453,
    "lng": 144.97579059999998},
    {
    "id": 797,
    "name": "All-Saints Opportunity Shop",
    "address": "8 Ninth Ave, Rosebud VIC 3939",
    "opentime": "Mon - Fri 9:30am - 3:30pm\nSat 9:30am - 12pm\n",
    "lat": -38.356627,
    "lng": 144.9038},
    {
    "id": 798,
    "name": "Rosebud Recycle Shed",
    "address": "377 Eastbourne Rd Rosebud West",
    "opentime": "Mon - Fri 9am - 3pm\nSat 9am - 12pm\nSun Closed\n",
    "lat": -38.367281,
    "lng": 144.8752},
    {
    "id": 799,
    "name": "Rotary Opportunity Warehouse",
    "address": "4-13 Newington Avenue",
    "opentime": "Unknown\n",
    "lat": -38.381671999999995,
    "lng": 144.886277},
    {
    "id": 800,
    "name": "Habitat for Humanity Opportunity Shop",
    "address": "17 Henry Wilson Dve, Rosebud",
    "opentime": "Mon - Fri 10 - 4\nSat 10 - 1\n",
    "lat": -38.383426799999995,
    "lng": 144.8844255},
    {
    "id": 801,
    "name": "Rye Beach  Op Shop",
    "address": "2279 Point Nepean Road, Rye",
    "opentime": "Mon - Fri 10am - 4pm\nSat 10am - 1pm\n",
    "lat": -38.371115,
    "lng": 144.826305},
    {
    "id": 802,
    "name": "Peninsula Women's Information &amp;amp; Support Services Op Shop",
    "address": "3 Lyons St, Rye, 3941",
    "opentime": "Mon - Sat 10am-4pm\n",
    "lat": -38.37130399999999,
    "lng": 144.824846},
    {
    "id": 803,
    "name": "Southern Peninsula Community Fund Opportunity Shop",
    "address": "2141 Point Nepean Road",
    "opentime": "Unknown\n",
    "lat": -38.3712338,
    "lng": 144.8312355},
    {
    "id": 804,
    "name": "Andy's Place",
    "address": "41 Lyons Street, Rye",
    "opentime": "Mon Closed\nTue 9am - 4pm\nWed Closed\nThu - Fri 9am - 4pm\nSat 10am - 1pm\nSun Closed\n",
    "lat": -38.3745316,
    "lng": 144.8243444},
    {
    "id": 805,
    "name": "Southern Peninsula Rescue Op-Shop",
    "address": "Cnr Nelson St & Napier Street Rye 3941 (opposite Rye RSL)",
    "opentime": "Mon - Fri 10am-4pm\nSat 10am-1pm\nSun Closed\n",
    "lat": -38.3718817,
    "lng": 144.82300680000003},
    {
    "id": 806,
    "name": "Southern Peninsula Rescue Squad Op-Shop",
    "address": "Cnr Nelson & Napier Streets, Rye",
    "opentime": "Mon - Fri 10am-4pm\nSat 10am-1pm\n",
    "lat": -38.371413700000005,
    "lng": 144.8217094},
    {
    "id": 807,
    "name": "Search and Rescue Op Shop",
    "address": "Wilson road, Blairgowrie 3942",
    "opentime": "Mon - Fri 10 am - 4 pm\nSat 10 am - 1 pm\nSun Closed\n",
    "lat": -38.3630139,
    "lng": 144.7767977},
    {
    "id": 808,
    "name": "Search and Rescue Op Shop",
    "address": "Wilson Road, Blairgowrie",
    "opentime": "Mon - Thu 10am - 4pm\nFri 10 am - 4pm\nSat 10am - 1pm\nSun closed\n",
    "lat": -38.3630139,
    "lng": 144.7767977},
    {
    "id": 809,
    "name": "JackanAndy's Op Shop",
    "address": "848 Melbourne Road, Sorrento",
    "opentime": "Mon - Wed 10am - 4pm\nThu - Fri 10am - 4pm \nSat 10am - 1pm\nSun Closed \n",
    "lat": -38.340556299999996,
    "lng": 144.73704740000002},
    {
    "id": 810,
    "name": "Vinnies Korumburra",
    "address": "143 Little Commercial Street, Korumburra VIC 3950",
    "opentime": "Mon - Fri 10:00 AM - 4:00 PM\nSat 9:00 AM - 1:00 PM\nSun Closed\n",
    "lat": -38.430817600000005,
    "lng": 145.8219292},
    {
    "id": 811,
    "name": "The Mine Road Op Shop",
    "address": "15A & 15B Mine Road, Korumburra, Victoria 3950",
    "opentime": "Mon - Wed closed\nThu - Fri 9.00am-4.00pm\nSat 9.00am-12 noon\nSun closed\n",
    "lat": -38.43487879999999,
    "lng": 145.8260189},
    {
    "id": 812,
    "name": "FRIENDS OF HILLSIDE LODGE INC OP SHOP",
    "address": "38-40 Commercial Street Korumburra Vic 3950",
    "opentime": "Mon - Sat 9am - 4pm\nSun CLOSED\n",
    "lat": -38.4319243,
    "lng": 145.82408940000002},
    {
    "id": 813,
    "name": "Vinnies Leongatha",
    "address": "10 Peart Street, Leongatha VIC 3953",
    "opentime": "Mon - Fri 9:00 AM - 5:00 PM\nSat 9:00 AM - 1:00 PM\nSun Closed\n",
    "lat": -38.476706400000005,
    "lng": 145.943621},
    {
    "id": 814,
    "name": "Op Shop Venus Bay",
    "address": "27 Canterbury rd, Venus bay",
    "opentime": "Mon 9.30am to 2.30pm\nWed - Thu 9.30am to 2.30pm\nSat 10am to 2pm\n",
    "lat": -38.699766,
    "lng": 145.81947399999999},
    {
    "id": 815,
    "name": "Scouts Opportunity Shop",
    "address": "Shop 4, Victoria Arcade, 243 Commercial Road, Yarram, 3971",
    "opentime": "Mon - Tue closed\nWed - Fri 10am - 4pm\nSat 10am - 12noon\nSun closed\n",
    "lat": -38.56338100000001,
    "lng": 146.676512},
    {
    "id": 816,
    "name": "Twice Blessed",
    "address": "192 Commercial Road, Yarram, Victoria, 3971",
    "opentime": "Mon - Tue closed\nWed - Fri 10am - 4pm\nSat 10am - 12noon\nSun closed\n",
    "lat": -38.5618792,
    "lng": 146.6759892},
    {
    "id": 817,
    "name": "Oz Child - Hampton Park -CLOSED",
    "address": "2/90 Somerville Rd, Hampton Park VIC",
    "opentime": "Unknown\n",
    "lat": -38.031037,
    "lng": 145.257408},
    {
    "id": 818,
    "name": "Hampton Park Salvos",
    "address": "Shops 31 & 32 Hampton Park Shopping Square Somerville Road, Hampton Park VIC 3976",
    "opentime": "Mon - Fri 9.00-5.30\nSat 10.00-2.00\nSun CLOSED\n",
    "lat": -38.0324857,
    "lng": 145.26566530000002},
    {
    "id": 819,
    "name": "Vision Australia OpShop",
    "address": "34 Lurline St Cranbourne",
    "opentime": "Unknown\n",
    "lat": -38.11054499999999,
    "lng": 145.27532659999997},
    {
    "id": 820,
    "name": "Cranbourne Community Hub Charity Organization ",
    "address": "13 Grace Street Cranbourne 3977",
    "opentime": "Mon - Fri 9:30 - 4:00\nSat - Sun Closed\n",
    "lat": -38.1042511,
    "lng": 145.284503},
    {
    "id": 821,
    "name": "Vinnies Cranbourne",
    "address": "4/218 High Street, Cranbourne VIC 3977",
    "opentime": "Mon - Sat 9:00 AM - 5:00 PM\nSun 10:00 Am - 4:00 Pm\n",
    "lat": -38.1006818,
    "lng": 145.28346200000001},
    {
    "id": 822,
    "name": "Cranbourne Red Cross",
    "address": "94 High Street\tCranbourne VIC 3977",
    "opentime": "Mon - Fri 9:00am - 4:00pm\n",
    "lat": -38.1101506,
    "lng": 145.2836158},
    {
    "id": 823,
    "name": "Epilepsy Op Shop Cranbourne",
    "address": "10 Lurline Street Cranbourne VIC ",
    "opentime": "Mon - Fri 9.30am to 4pm\nSat 9.30am to 3pm\n",
    "lat": -38.11161999999999,
    "lng": 145.275078},
    {
    "id": 824,
    "name": "Salvation Army Thrift Store",
    "address": "108 Camms Rd, Cranbourne",
    "opentime": "Mon - Fri 9:30am - 4pm\nSat 9am to 1pm\n",
    "lat": -38.0985086,
    "lng": 145.2843302},
    {
    "id": 825,
    "name": "Epilepsy Op Shop Cranbourne",
    "address": "10 Lurline Street, Cranbourne VIC",
    "opentime": "Mon - Fri 9am to 4pm\nSat 9am to 3pm\n",
    "lat": -38.11161999999999,
    "lng": 145.275078},
    {
    "id": 826,
    "name": "Cranbourne Salvos",
    "address": "Home Maker Centre - 10A/350 Gippsland Highway, Cranbourne North VIC 3977",
    "opentime": "Mon - Fri 9.00-5.30\nSat 9.00-5.00\n",
    "lat": -38.0853355,
    "lng": 145.27980159999998},
    {
    "id": 827,
    "name": "RSPCA Op Shop",
    "address": "shop 1-2, 33 High Street Cranbourne Vic 3977",
    "opentime": "Mon - Fri Monday-Friday 9am - 4.30pm\nSat 9am-2pm\nSun Closed\n",
    "lat": -38.0988892,
    "lng": 145.28298480000004},
    {
    "id": 828,
    "name": "Bayles Bits'n'Pieces",
    "address": "665 Koo Wee Rup - Longwarry Road, Bayles, 3981",
    "opentime": "Thu - Sun 10:00am - 4:00pm\n",
    "lat": -38.177467,
    "lng": 145.570788},
    {
    "id": 829,
    "name": "Used To Be New",
    "address": "Rossiter Rd, Carrum Downs VIC 3201",
    "opentime": "Unknown\n",
    "lat": -38.0769801,
    "lng": 145.1654342},
    {
    "id": 830,
    "name": "Lang lang op shop",
    "address": "12 westernport road lang lang 3984",
    "opentime": "Mon - Fri 10am-3pm\nSat 10am-1pm\n",
    "lat": -38.265628899999996,
    "lng": 145.56347680000002},
    {
    "id": 831,
    "name": "Nyora Community Op Shop",
    "address": "Nyora Railway Station, Henley Street, Nyora, VIC, 3987",
    "opentime": "Mon - Sat 9.00am - 1.00pm\n",
    "lat": -38.3368437,
    "lng": 145.6687611},
    {
    "id": 832,
    "name": "Hadden House Op Shop",
    "address": "Bass School Road, Bass 3991",
    "opentime": "Mon - Fri 9.00 am to 2.00 pm\nSat 10.00 am to 2.00 pm\n",
    "lat": -38.4843648,
    "lng": 145.4659555},
    {
    "id": 833,
    "name": "The Salvation Army Thrift Shop Wonthaggi Superstore",
    "address": "2/20 Inverloch Road, Wonthaggi",
    "opentime": "Mon - Fri 9.30am - 4.15pm\nSat 9.30am - 2.15pm\n",
    "lat": -38.6067823,
    "lng": 145.6035514},
    {
    "id": 834,
    "name": "Lifeline - Wonthaggi",
    "address": "175 Graham St, Wonthaggi",
    "opentime": "Unknown\n",
    "lat": -38.60650589999999,
    "lng": 145.5888439},
    {
    "id": 835,
    "name": "Vinnies Wonthaggi",
    "address": "100 Graham Street, Wonthaggi VIC 3995",
    "opentime": "Mon - Fri 9:00 AM - 5:00 PM\nSat 9:00 AM - 4:00 PM\nSun 10:00AM - 2:00 PM \n",
    "lat": -38.6057698,
    "lng": 145.5919231},
  {
    "id": 836,
    "name": "Inverloch Red Cross",
    "address": "14 William Street, Inverloch VIC 3996",
    "opentime": "Mon - Fri 9:30am - 4:30pm\nSat 9:30am - 3:30pm\nSun 11:30am - 3:30pm\n",
    "lat": -38.632781,
    "lng": 145.72993480000002
  }
]